
[
    {
     "StateId": 1,
     "CityName": "Calicut",
     "Id": 14,
     "IsActive": 1,
     "CreatedBy": "NULL",
     "CreatedDate": "NULL",
     "ModifiedBy": 1,
     "ModifiedDate": "32:26.8",
     "IsDeleted": 0,
     "RowId": "NULL",
     "CityCode": "CCJA",
     "GoogleCityName": "South Andaman",
     "Latitude": 11.598835,
     "Longitude": 92.7145434999999
    },
    {
     "StateId": 1,
     "CityName": "Defence Island",
     "Id": 17,
     "IsActive": 1,
     "CreatedBy": "NULL",
     "CreatedDate": "NULL",
     "ModifiedBy": 1,
     "ModifiedDate": "32:26.8",
     "IsDeleted": "00:00:00",
     "RowId": "NULL",
     "CityCode": "DEFD",
     "GoogleCityName": "NULL",
     "Latitude": 11.954214,
     "Longitude": 92.6015635
    },
    {
     "StateId": 1,
     "CityName": "Port Blair",
     "Id": 57,
     "IsActive": 1,
     "CreatedBy": "NULL",
     "CreatedDate": "NULL",
     "ModifiedBy": "NULL",
     "ModifiedDate": "11:14.8",
     "IsDeleted": "00:00:00",
     "RowId": "NULL",
     "CityCode": "IXZ",
     "placeid": "NULL",
     "GoogleCityName": "South Andaman",
     "Latitude": 11.6233774,
     "Longitude": 92.7264828
    },
    {
     "StateId": 2,
     "CityName": "Adoni",
     "Id": 80,
     "IsActive": 1,
     "CreatedBy": "NULL",
     "CreatedDate": "NULL",
     "ModifiedBy": "NULL",
     "ModifiedDate": "11:14.9",
     "IsDeleted": "00:00:00",
     "RowId": "NULL",
     "CityCode": "ADOI",
     "placeid": "NULL",
     "GoogleCityName": "Kurnool",
     "Latitude": 15.6318824,
     "Longitude": 77.2758832999999
    },
    {
     "StateId": 2,
     "CityName": "Amalapuram",
     "Id": 84,
     "IsActive": 1,
     "CreatedBy": "NULL",
     "CreatedDate": "NULL",
     "ModifiedBy": "NULL",
     "ModifiedDate": "11:14.9",
     "IsDeleted": 0,
     "RowId": "NULL",
     "CityCode": "AMAM",
     "placeid": "NULL",
     "GoogleCityName": "East Godavari",
     "Latitude": 16.5774798,
     "Longitude": 82.0031455
    },
    {
     "StateId": 2,
     "CityName": "Anakapalle",
     "Id": 86,
     "IsActive": 1,
     "CreatedBy": "NULL",
     "CreatedDate": "NULL",
     "ModifiedBy": "NULL",
     "ModifiedDate": "11:14.9",
     "IsDeleted": 0,
     "RowId": "NULL",
     "CityCode": "ANAE",
     "placeid": "NULL",
     "GoogleCityName": "Vishakhapatnam",
     "Latitude": 17.6896435,
     "Longitude": 83.0023634
    },
    {
     "StateId": 2,
     "CityName": "Anantapur",
     "Id": 87,
     "IsActive": 1,
     "CreatedBy": "NULL",
     "CreatedDate": "NULL",
     "ModifiedBy": "NULL",
     "ModifiedDate": "11:14.9",
     "IsDeleted": "00:00:00",
     "RowId": "NULL",
     "CityCode": "ANART",
     "placeid": "NULL",
     "GoogleCityName": "Anantapuram",
     "Latitude": 14.6818877,
     "Longitude": 77.6005911
    },
    {
     "StateId": 2,
     "CityName": "Atmakur",
     "Id": 93,
     "IsActive": 1,
     "CreatedBy": "NULL",
     "CreatedDate": "NULL",
     "ModifiedBy": "NULL",
     "ModifiedDate": "11:14.9",
     "IsDeleted": 0,
     "RowId": "NULL",
     "CityCode": "ATMR",
     "placeid": "NULL",
     "GoogleCityName": "Kurnool",
     "Latitude": 15.8790417,
     "Longitude": 78.5852609
    },
    {
     "StateId": 2,
     "CityName": "Bapatla",
     "Id": 100,
     "IsActive": 1,
     "CreatedBy": "NULL",
     "CreatedDate": "NULL",
     "ModifiedBy": "NULL",
     "ModifiedDate": "11:14.9",
     "IsDeleted": 0,
     "RowId": "NULL",
     "CityCode": "BAPA",
     "placeid": "NULL",
     "GoogleCityName": "Guntur",
     "Latitude": 15.9039445,
     "Longitude": 80.4671374999999
    },
    {
     "StateId": 2,
     "CityName": "Bhadrachalam",
     "Id": 102,
     "IsActive": 1,
     "CreatedBy": "NULL",
     "CreatedDate": "NULL",
     "ModifiedBy": 1,
     "ModifiedDate": "32:26.8",
     "IsDeleted": "00:00:00",
     "RowId": "NULL",
     "CityCode": "BHAM",
     "GoogleCityName": "Khammam",
     "Latitude": 17.6687912,
     "Longitude": 80.8935925
    },
    {
     "StateId": 2,
     "CityName": "Bhimavaram",
     "Id": 106,
     "IsActive": 1,
     "CreatedBy": "NULL",
     "CreatedDate": "NULL",
     "ModifiedBy": "NULL",
     "ModifiedDate": "11:14.9",
     "IsDeleted": 0,
     "RowId": "NULL",
     "CityCode": "BHIMA",
     "placeid": "NULL",
     "GoogleCityName": "West Godavari",
     "Latitude": 16.544893,
     "Longitude": 81.521241
    },
    {
     "StateId": 2,
     "CityName": "Chirala",
     "Id": 121,
     "IsActive": 1,
     "CreatedBy": "NULL",
     "CreatedDate": "NULL",
     "ModifiedBy": 1,
     "ModifiedDate": "32:26.8",
     "IsDeleted": 0,
     "RowId": "NULL",
     "CityCode": "CHIAAA",
     "GoogleCityName": "Prakasam",
     "Latitude": 15.8166616,
     "Longitude": 80.35869
    },
    {
     "StateId": 2,
     "CityName": "Chittoor",
     "Id": 122,
     "IsActive": 1,
     "CreatedBy": "NULL",
     "CreatedDate": "NULL",
     "ModifiedBy": "NULL",
     "ModifiedDate": "11:15.0",
     "IsDeleted": 0,
     "RowId": "NULL",
     "CityCode": "CHIRTA",
     "placeid": "NULL",
     "GoogleCityName": "Chittoor",
     "Latitude": 13.217176,
     "Longitude": 79.1003289
    },
    {
     "StateId": 2,
     "CityName": "Cuddapah",
     "Id": 124,
     "IsActive": 1,
     "CreatedBy": "NULL",
     "CreatedDate": "NULL",
     "ModifiedBy": "NULL",
     "ModifiedDate": "11:15.0",
     "IsDeleted": 0,
     "RowId": "NULL",
     "CityCode": "CUDH",
     "placeid": "NULL",
     "GoogleCityName": "Kadapa",
     "Latitude": 14.4673154,
     "Longitude": 78.8242089
    },
    {
     "StateId": 2,
     "CityName": "Darsi",
     "Id": 126,
     "IsActive": 1,
     "CreatedBy": "NULL",
     "CreatedDate": "NULL",
     "ModifiedBy": "NULL",
     "ModifiedDate": "11:15.0",
     "IsDeleted": 0,
     "RowId": "NULL",
     "CityCode": "DARII",
     "placeid": "NULL",
     "GoogleCityName": "Prakasam",
     "Latitude": 15.7699955,
     "Longitude": 79.6794474
    },
    {
     "StateId": 2,
     "CityName": "Dharmavaram",
     "Id": 128,
     "IsActive": 1,
     "CreatedBy": "NULL",
     "CreatedDate": "NULL",
     "ModifiedBy": "NULL",
     "ModifiedDate": "11:15.0",
     "IsDeleted": 0,
     "RowId": "NULL",
     "CityCode": "DHAMM",
     "placeid": "NULL",
     "GoogleCityName": "Anantapuram",
     "Latitude": 14.4124551,
     "Longitude": 77.7201031
    },
    {
     "StateId": 2,
     "CityName": "Eluru",
     "Id": 134,
     "IsActive": 1,
     "CreatedBy": "NULL",
     "CreatedDate": "NULL",
     "ModifiedBy": "NULL",
     "ModifiedDate": "11:15.0",
     "IsDeleted": 0,
     "RowId": "NULL",
     "CityCode": "ELUU",
     "placeid": "NULL",
     "GoogleCityName": "West Godavari",
     "Latitude": 16.7106604,
     "Longitude": 81.0952431
    },
    {
     "StateId": 2,
     "CityName": "Gadwal",
     "Id": 136,
     "IsActive": 1,
     "CreatedBy": "NULL",
     "CreatedDate": "NULL",
     "ModifiedBy": "NULL",
     "ModifiedDate": "11:15.0",
     "IsDeleted": 0,
     "RowId": "NULL",
     "CityCode": "GADL",
     "placeid": "NULL",
     "GoogleCityName": "Mahabubnagar",
     "Latitude": 16.2336589,
     "Longitude": 77.8081363
    },
    {
     "StateId": 2,
     "CityName": "Gudivada",
     "Id": 143,
     "IsActive": 1,
     "CreatedBy": "NULL",
     "CreatedDate": "NULL",
     "ModifiedBy": "NULL",
     "ModifiedDate": "11:15.0",
     "IsDeleted": 0,
     "RowId": "NULL",
     "CityCode": "GUDA",
     "placeid": "NULL",
     "GoogleCityName": "Krishna",
     "Latitude": 16.4344461,
     "Longitude": 80.9931388
    },
    {
     "StateId": 2,
     "CityName": "Gudur",
     "Id": 144,
     "IsActive": 1,
     "CreatedBy": "NULL",
     "CreatedDate": "NULL",
     "ModifiedBy": "NULL",
     "ModifiedDate": "11:15.0",
     "IsDeleted": 0,
     "RowId": "NULL",
     "CityCode": "GUDRR",
     "placeid": "NULL",
     "GoogleCityName": "Sri Potti Sriramulu Nellore District",
     "Latitude": 14.1463424,
     "Longitude": 79.8503808999999
    },
    {
     "StateId": 2,
     "CityName": "Guntur",
     "Id": 145,
     "IsActive": 1,
     "CreatedBy": "NULL",
     "CreatedDate": "NULL",
     "ModifiedBy": "NULL",
     "ModifiedDate": "11:15.0",
     "IsDeleted": 0,
     "RowId": "NULL",
     "CityCode": "GUN",
     "placeid": "NULL",
     "GoogleCityName": "Guntur",
     "Latitude": 16.3066525,
     "Longitude": 80.4365402
    },
    {
     "StateId": 2,
     "CityName": "Hindupur",
     "Id": 146,
     "IsActive": 1,
     "CreatedBy": "NULL",
     "CreatedDate": "NULL",
     "ModifiedBy": "NULL",
     "ModifiedDate": "11:15.0",
     "IsDeleted": 0,
     "RowId": "NULL",
     "CityCode": "HINR",
     "placeid": "NULL",
     "GoogleCityName": "Anantapuram",
     "Latitude": 13.8222599,
     "Longitude": 77.5009298
    },
    {
     "StateId": 37,
     "CityName": "Hyderabad",
     "Id": 150,
     "IsActive": 1,
     "CreatedBy": "NULL",
     "CreatedDate": "NULL",
     "ModifiedBy": 7,
     "ModifiedDate": "11:15.0",
     "IsDeleted": 0,
     "RowId": "NULL",
     "CityCode": "HYD",
     "placeid": "NULL",
     "GoogleCityName": "NULL",
     "Latitude": 17.385044,
     "Longitude": 78.486671
    },
    {
     "StateId": 2,
     "CityName": "Jaggayyapet",
     "Id": 152,
     "IsActive": 1,
     "CreatedBy": "NULL",
     "CreatedDate": "NULL",
     "ModifiedBy": "NULL",
     "ModifiedDate": "11:15.0",
     "IsDeleted": 0,
     "RowId": "NULL",
     "CityCode": "JAGT",
     "placeid": "NULL",
     "GoogleCityName": "Krishna",
     "Latitude": 16.898534,
     "Longitude": 80.103347
    },
    {
     "StateId": 2,
     "CityName": "Jangareddygudem",
     "Id": 156,
     "IsActive": 1,
     "CreatedBy": "NULL",
     "CreatedDate": "NULL",
     "ModifiedBy": "NULL",
     "ModifiedDate": "11:15.0",
     "IsDeleted": 0,
     "RowId": "NULL",
     "CityCode": "JADMAA",
     "placeid": "NULL",
     "GoogleCityName": "West Godavari",
     "Latitude": 17.122319,
     "Longitude": 81.2923086999999
    },
    {
     "StateId": 2,
     "CityName": "Kadiri",
     "Id": 158,
     "IsActive": 1,
     "CreatedBy": "NULL",
     "CreatedDate": "NULL",
     "ModifiedBy": "NULL",
     "ModifiedDate": "11:15.1",
     "IsDeleted": 0,
     "RowId": "NULL",
     "CityCode": "KADI",
     "placeid": "NULL",
     "GoogleCityName": "Anantapuram",
     "Latitude": 14.1137566,
     "Longitude": 78.1610702
    },
    {
     "StateId": 2,
     "CityName": "Kakinada",
     "Id": 160,
     "IsActive": 1,
     "CreatedBy": "NULL",
     "CreatedDate": "NULL",
     "ModifiedBy": "NULL",
     "ModifiedDate": "11:15.1",
     "IsDeleted": 0,
     "RowId": "NULL",
     "CityCode": "KAK",
     "placeid": "NULL",
     "GoogleCityName": "East Godavari",
     "Latitude": 16.9890648,
     "Longitude": 82.2474648
    },
    {
     "StateId": 2,
     "CityName": "Kandukuru",
     "Id": 167,
     "IsActive": 1,
     "CreatedBy": "NULL",
     "CreatedDate": "NULL",
     "ModifiedBy": "NULL",
     "ModifiedDate": "11:15.1",
     "IsDeleted": 0,
     "RowId": "NULL",
     "CityCode": "KANU",
     "placeid": "NULL",
     "GoogleCityName": "Prakasam",
     "Latitude": 15.219717,
     "Longitude": 79.9024779
    },
    {
     "StateId": 2,
     "CityName": "Karimnagar",
     "Id": 169,
     "IsActive": 1,
     "CreatedBy": "NULL",
     "CreatedDate": "NULL",
     "ModifiedBy": "NULL",
     "ModifiedDate": "11:15.1",
     "IsDeleted": 0,
     "RowId": "NULL",
     "CityCode": "KMN",
     "placeid": "NULL",
     "GoogleCityName": "Karimnagar",
     "Latitude": 18.4385553,
     "Longitude": 79.1288412
    },
    {
     "StateId": 2,
     "CityName": "Kavali",
     "Id": 170,
     "IsActive": 1,
     "CreatedBy": "NULL",
     "CreatedDate": "NULL",
     "ModifiedBy": "NULL",
     "ModifiedDate": "11:15.1",
     "IsDeleted": 0,
     "RowId": "NULL",
     "CityCode": "KAVI",
     "placeid": "NULL",
     "GoogleCityName": "Sri Potti Sriramulu Nellore District",
     "Latitude": 14.9131806,
     "Longitude": 79.9929798
    },
    {
     "StateId": 2,
     "CityName": "Khammam",
     "Id": 171,
     "IsActive": 1,
     "CreatedBy": "NULL",
     "CreatedDate": "NULL",
     "ModifiedBy": 1,
     "ModifiedDate": "32:26.8",
     "IsDeleted": 0,
     "RowId": "NULL",
     "CityCode": "KHAMMA",
     "GoogleCityName": "Khammam",
     "Latitude": 17.2472528,
     "Longitude": 80.1514447
    },
    {
     "StateId": 2,
     "CityName": "Koduru",
     "Id": 174,
     "IsActive": 1,
     "CreatedBy": "NULL",
     "CreatedDate": "NULL",
     "ModifiedBy": 1,
     "ModifiedDate": "32:26.8",
     "IsDeleted": 0,
     "RowId": "NULL",
     "CityCode": "KODUR",
     "GoogleCityName": "Krishna",
     "Latitude": 16.008622,
     "Longitude": 81.0340600999999
    },
    {
     "StateId": 2,
     "CityName": "Kuppam",
     "Id": 181,
     "IsActive": 1,
     "CreatedBy": "NULL",
     "CreatedDate": "NULL",
     "ModifiedBy": "NULL",
     "ModifiedDate": "11:15.1",
     "IsDeleted": 0,
     "RowId": "NULL",
     "CityCode": "KUPM",
     "placeid": "NULL",
     "GoogleCityName": "Chittoor",
     "Latitude": 12.7461129,
     "Longitude": 78.342291
    },
    {
     "StateId": 2,
     "CityName": "Kurnool",
     "Id": 182,
     "IsActive": 1,
     "CreatedBy": "NULL",
     "CreatedDate": "NULL",
     "ModifiedBy": "NULL",
     "ModifiedDate": "11:15.1",
     "IsDeleted": 0,
     "RowId": "NULL",
     "CityCode": "KUR",
     "placeid": "NULL",
     "GoogleCityName": "Kurnool",
     "Latitude": 15.8281257,
     "Longitude": 78.0372792
    },
    {
     "StateId": 2,
     "CityName": "Madanapalli",
     "Id": 185,
     "IsActive": 1,
     "CreatedBy": "NULL",
     "CreatedDate": "NULL",
     "ModifiedBy": "NULL",
     "ModifiedDate": "11:15.1",
     "IsDeleted": 0,
     "RowId": "NULL",
     "CityCode": "MADIN",
     "placeid": "NULL",
     "GoogleCityName": "Chittoor",
     "Latitude": 13.5560496,
     "Longitude": 78.5010006999999
    },
    {
     "StateId": 2,
     "CityName": "Mandapeta",
     "Id": 193,
     "IsActive": 1,
     "CreatedBy": "NULL",
     "CreatedDate": "NULL",
     "ModifiedBy": 1,
     "ModifiedDate": "32:26.8",
     "IsDeleted": 0,
     "RowId": "NULL",
     "CityCode": "MANAAA",
     "GoogleCityName": "East Godavari",
     "Latitude": 16.8652942,
     "Longitude": 81.9261999
    },
    {
     "StateId": 2,
     "CityName": "Markapur",
     "Id": 196,
     "IsActive": 1,
     "CreatedBy": "NULL",
     "CreatedDate": "NULL",
     "ModifiedBy": "NULL",
     "ModifiedDate": "11:15.2",
     "IsDeleted": 0,
     "RowId": "NULL",
     "CityCode": "MARR",
     "placeid": "NULL",
     "GoogleCityName": "Prakasam",
     "Latitude": 15.7361535,
     "Longitude": 79.269125
    },
    {
     "StateId": 2,
     "CityName": "Mriyalguda",
     "Id": 202,
     "IsActive": 1,
     "CreatedBy": "NULL",
     "CreatedDate": "NULL",
     "ModifiedBy": 1,
     "ModifiedDate": "32:26.8",
     "IsDeleted": 0,
     "RowId": "NULL",
     "CityCode": "MRIA",
     "GoogleCityName": "Nalgonda",
     "Latitude": 16.8654954,
     "Longitude": 79.5589274
    },
    {
     "StateId": 2,
     "CityName": "Nalgonda",
     "Id": 206,
     "IsActive": 1,
     "CreatedBy": "NULL",
     "CreatedDate": "NULL",
     "ModifiedBy": "NULL",
     "ModifiedDate": "11:15.2",
     "IsDeleted": 0,
     "RowId": "NULL",
     "CityCode": "NALAOA",
     "placeid": "NULL",
     "GoogleCityName": "Nalgonda",
     "Latitude": 17.0574663,
     "Longitude": 79.2684168999999
    },
    {
     "StateId": 2,
     "CityName": "Nandyal",
     "Id": 211,
     "IsActive": 1,
     "CreatedBy": "NULL",
     "CreatedDate": "NULL",
     "ModifiedBy": "NULL",
     "ModifiedDate": "11:15.2",
     "IsDeleted": 0,
     "RowId": "NULL",
     "CityCode": "NANLY",
     "placeid": "NULL",
     "GoogleCityName": "Kurnool",
     "Latitude": 15.4776876,
     "Longitude": 78.487285
    },
    {
     "StateId": 2,
     "CityName": "Narasaraopet",
     "Id": 213,
     "IsActive": 1,
     "CreatedBy": "NULL",
     "CreatedDate": "NULL",
     "ModifiedBy": "NULL",
     "ModifiedDate": "11:15.2",
     "IsDeleted": 0,
     "RowId": "NULL",
     "CityCode": "NAPTR",
     "placeid": "NULL",
     "GoogleCityName": "Guntur",
     "Latitude": 16.2359181,
     "Longitude": 80.0496498999999
    },
    {
     "StateId": 2,
     "CityName": "Narsipatnam",
     "Id": 217,
     "IsActive": 1,
     "CreatedBy": "NULL",
     "CreatedDate": "NULL",
     "ModifiedBy": "NULL",
     "ModifiedDate": "11:15.2",
     "IsDeleted": 0,
     "RowId": "NULL",
     "CityCode": "NARM",
     "placeid": "NULL",
     "GoogleCityName": "Vishakhapatnam",
     "Latitude": 17.666433,
     "Longitude": 82.6105228
    },
    {
     "StateId": 2,
     "CityName": "Nelloe",
     "Id": 219,
     "IsActive": 1,
     "CreatedBy": "NULL",
     "CreatedDate": "NULL",
     "ModifiedBy": "NULL",
     "ModifiedDate": "11:15.2",
     "IsDeleted": 0,
     "RowId": "NULL",
     "CityCode": "NELE",
     "placeid": "NULL",
     "GoogleCityName": "Sri Potti Sriramulu Nellore District",
     "Latitude": 14.4425987,
     "Longitude": 79.9864559999999
    },
    {
     "StateId": 2,
     "CityName": "Nellore",
     "Id": 220,
     "IsActive": 1,
     "CreatedBy": "NULL",
     "CreatedDate": "NULL",
     "ModifiedBy": "NULL",
     "ModifiedDate": "11:15.2",
     "IsDeleted": 0,
     "RowId": "NULL",
     "CityCode": "NEL",
     "placeid": "NULL",
     "GoogleCityName": "Sri Potti Sriramulu Nellore District",
     "Latitude": 14.4425987,
     "Longitude": 79.9864559999999
    },
    {
     "StateId": 2,
     "CityName": "Nizamabad",
     "Id": 223,
     "IsActive": 1,
     "CreatedBy": "NULL",
     "CreatedDate": "NULL",
     "ModifiedBy": "NULL",
     "ModifiedDate": "11:15.2",
     "IsDeleted": 0,
     "RowId": "NULL",
     "CityCode": "NIZD",
     "placeid": "NULL",
     "GoogleCityName": "Nizamabad",
     "Latitude": 18.2836461,
     "Longitude": 84.0140984
    },
    {
     "StateId": 2,
     "CityName": "Ongole",
     "Id": 225,
     "IsActive": 1,
     "CreatedBy": "NULL",
     "CreatedDate": "NULL",
     "ModifiedBy": "NULL",
     "ModifiedDate": "11:15.2",
     "IsDeleted": 0,
     "RowId": "NULL",
     "CityCode": "ONGE",
     "placeid": "NULL",
     "GoogleCityName": "Prakasam",
     "Latitude": 15.5057232,
     "Longitude": 80.049922
    },
    {
     "StateId": 2,
     "CityName": "Pamuru",
     "Id": 232,
     "IsActive": 1,
     "CreatedBy": "NULL",
     "CreatedDate": "NULL",
     "ModifiedBy": "NULL",
     "ModifiedDate": "11:15.3",
     "IsDeleted": 0,
     "RowId": "NULL",
     "CityCode": "PAMU",
     "placeid": "NULL",
     "GoogleCityName": "Prakasam",
     "Latitude": 15.0960348,
     "Longitude": 79.4113072
    },
    {
     "StateId": 2,
     "CityName": "Parvathipuram",
     "Id": 235,
     "IsActive": 1,
     "CreatedBy": "NULL",
     "CreatedDate": "NULL",
     "ModifiedBy": "NULL",
     "ModifiedDate": "11:15.3",
     "IsDeleted": 0,
     "RowId": "NULL",
     "CityCode": "PARM",
     "placeid": "NULL",
     "GoogleCityName": "Vizianagaram",
     "Latitude": 18.7817162,
     "Longitude": 83.4267517999999
    },
    {
     "StateId": 2,
     "CityName": "Piler",
     "Id": 243,
     "IsActive": 1,
     "CreatedBy": "NULL",
     "CreatedDate": "NULL",
     "ModifiedBy": "NULL",
     "ModifiedDate": "11:15.3",
     "IsDeleted": 0,
     "RowId": "NULL",
     "CityCode": "PILR",
     "placeid": "NULL",
     "GoogleCityName": "Chittoor",
     "Latitude": 13.654869,
     "Longitude": 78.9471378
    },
    {
     "StateId": 2,
     "CityName": "Podili",
     "Id": 245,
     "IsActive": 1,
     "CreatedBy": "NULL",
     "CreatedDate": "NULL",
     "ModifiedBy": "NULL",
     "ModifiedDate": "11:15.3",
     "IsDeleted": 0,
     "RowId": "NULL",
     "CityCode": "PODI",
     "placeid": "NULL",
     "GoogleCityName": "Prakasam",
     "Latitude": 15.6070347,
     "Longitude": 79.6146273
    },
    {
     "StateId": 2,
     "CityName": "Prakasam",
     "Id": 247,
     "IsActive": 1,
     "CreatedBy": "NULL",
     "CreatedDate": "NULL",
     "ModifiedBy": "NULL",
     "ModifiedDate": "11:15.3",
     "IsDeleted": 0,
     "RowId": "NULL",
     "CityCode": "PRAM",
     "placeid": "NULL",
     "GoogleCityName": "Prakasam",
     "Latitude": 15.348463,
     "Longitude": 79.560344
    },
    {
     "StateId": 2,
     "CityName": "Proddatur",
     "Id": 248,
     "IsActive": 1,
     "CreatedBy": "NULL",
     "CreatedDate": "NULL",
     "ModifiedBy": "NULL",
     "ModifiedDate": "11:15.3",
     "IsDeleted": 0,
     "RowId": "NULL",
     "CityCode": "PRORD",
     "placeid": "NULL",
     "GoogleCityName": "Kadapa",
     "Latitude": 14.752624,
     "Longitude": 78.5541053
    },
    {
     "StateId": 2,
     "CityName": "Pulivendla",
     "Id": 249,
     "IsActive": 1,
     "CreatedBy": "NULL",
     "CreatedDate": "NULL",
     "ModifiedBy": 1,
     "ModifiedDate": "32:26.8",
     "IsDeleted": 0,
     "RowId": "NULL",
     "CityCode": "PULAV",
     "GoogleCityName": "Kadapa",
     "Latitude": 14.4222318,
     "Longitude": 78.2263388
    },
    {
     "StateId": 2,
     "CityName": "Punganur",
     "Id": 250,
     "IsActive": 1,
     "CreatedBy": "NULL",
     "CreatedDate": "NULL",
     "ModifiedBy": "NULL",
     "ModifiedDate": "11:15.3",
     "IsDeleted": 0,
     "RowId": "NULL",
     "CityCode": "PUNRA",
     "placeid": "NULL",
     "GoogleCityName": "Chittoor",
     "Latitude": 13.36592,
     "Longitude": 78.5750140999999
    },
    {
     "StateId": 2,
     "CityName": "Rajahmundry",
     "Id": 252,
     "IsActive": 1,
     "CreatedBy": "NULL",
     "CreatedDate": "NULL",
     "ModifiedBy": "NULL",
     "ModifiedDate": "11:15.3",
     "IsDeleted": 0,
     "RowId": "NULL",
     "CityCode": "RJA",
     "placeid": "NULL",
     "GoogleCityName": "East Godavari",
     "Latitude": 17.0005383,
     "Longitude": 81.8040345
    },
    {
     "StateId": 2,
     "CityName": "Rayachoti",
     "Id": 259,
     "IsActive": 1,
     "CreatedBy": "NULL",
     "CreatedDate": "NULL",
     "ModifiedBy": 1,
     "ModifiedDate": "32:26.8",
     "IsDeleted": 0,
     "RowId": "NULL",
     "CityCode": "RAYIC",
     "GoogleCityName": "Kadapa",
     "Latitude": 14.0586263,
     "Longitude": 78.7519382
    },
    {
     "StateId": 2,
     "CityName": "Srikakulam",
     "Id": 276,
     "IsActive": 1,
     "CreatedBy": "NULL",
     "CreatedDate": "NULL",
     "ModifiedBy": "NULL",
     "ModifiedDate": "11:15.4",
     "IsDeleted": 0,
     "RowId": "NULL",
     "CityCode": "SRI",
     "placeid": "NULL",
     "GoogleCityName": "Srikakulam",
     "Latitude": 18.2949165,
     "Longitude": 83.8938017999999
    },
    {
     "StateId": 2,
     "CityName": "Srikalahasti",
     "Id": 277,
     "IsActive": 1,
     "CreatedBy": "NULL",
     "CreatedDate": "NULL",
     "ModifiedBy": "NULL",
     "ModifiedDate": "11:15.4",
     "IsDeleted": 0,
     "RowId": "NULL",
     "CityCode": "SRIK",
     "placeid": "NULL",
     "GoogleCityName": "Chittoor",
     "Latitude": 13.7527145,
     "Longitude": 79.7066722
    },
    {
     "StateId": 2,
     "CityName": "Sullarpet",
     "Id": 281,
     "IsActive": 1,
     "CreatedBy": "NULL",
     "CreatedDate": "NULL",
     "ModifiedBy": "NULL",
     "ModifiedDate": "11:15.4",
     "IsDeleted": 0,
     "RowId": "NULL",
     "CityCode": "SULT",
     "placeid": "NULL",
     "GoogleCityName": "Sri Potti Sriramulu Nellore District",
     "Latitude": 13.7008756,
     "Longitude": 80.0209065
    },
    {
     "StateId": 2,
     "CityName": "Tadepalligudem",
     "Id": 282,
     "IsActive": 1,
     "CreatedBy": "NULL",
     "CreatedDate": "NULL",
     "ModifiedBy": "NULL",
     "ModifiedDate": "11:15.4",
     "IsDeleted": 0,
     "RowId": "NULL",
     "CityCode": "TADM",
     "placeid": "NULL",
     "GoogleCityName": "West Godavari",
     "Latitude": 16.8072523,
     "Longitude": 81.5316033
    },
    {
     "StateId": 2,
     "CityName": "Tadipatri",
     "Id": 283,
     "IsActive": 1,
     "CreatedBy": "NULL",
     "CreatedDate": "NULL",
     "ModifiedBy": "NULL",
     "ModifiedDate": "11:15.4",
     "IsDeleted": 0,
     "RowId": "NULL",
     "CityCode": "TADI",
     "placeid": "NULL",
     "GoogleCityName": "Anantapuram",
     "Latitude": 14.9091024,
     "Longitude": 78.0092047
    },
    {
     "StateId": 2,
     "CityName": "Tanuku",
     "Id": 285,
     "IsActive": 1,
     "CreatedBy": "NULL",
     "CreatedDate": "NULL",
     "ModifiedBy": "NULL",
     "ModifiedDate": "11:15.4",
     "IsDeleted": 0,
     "RowId": "NULL",
     "CityCode": "TANUK",
     "placeid": "NULL",
     "GoogleCityName": "West Godavari",
     "Latitude": 16.7565815,
     "Longitude": 81.6769714
    },
    {
     "StateId": 2,
     "CityName": "Tenali",
     "Id": 287,
     "IsActive": 1,
     "CreatedBy": "NULL",
     "CreatedDate": "NULL",
     "ModifiedBy": "NULL",
     "ModifiedDate": "11:15.4",
     "IsDeleted": 0,
     "RowId": "NULL",
     "CityCode": "TENIL",
     "placeid": "NULL",
     "GoogleCityName": "Guntur",
     "Latitude": 16.237933,
     "Longitude": 80.6444099
    },
    {
     "StateId": 2,
     "CityName": "Tirivuru",
     "Id": 289,
     "IsActive": 1,
     "CreatedBy": "NULL",
     "CreatedDate": "NULL",
     "ModifiedBy": 1,
     "ModifiedDate": "32:26.8",
     "IsDeleted": 0,
     "RowId": "NULL",
     "CityCode": "TIRUA",
     "GoogleCityName": "Krishna",
     "Latitude": 17.1098751,
     "Longitude": 80.6093700999999
    },
    {
     "StateId": 2,
     "CityName": "Tirupati",
     "Id": 290,
     "IsActive": 1,
     "CreatedBy": "NULL",
     "CreatedDate": "NULL",
     "ModifiedBy": "NULL",
     "ModifiedDate": "11:15.4",
     "IsDeleted": 0,
     "RowId": "NULL",
     "CityCode": "TIR",
     "placeid": "NULL",
     "GoogleCityName": "Chittoor",
     "Latitude": 13.6287557,
     "Longitude": 79.4191795
    },
    {
     "StateId": 2,
     "CityName": "Tuni",
     "Id": 291,
     "IsActive": 1,
     "CreatedBy": "NULL",
     "CreatedDate": "NULL",
     "ModifiedBy": "NULL",
     "ModifiedDate": "11:15.4",
     "IsDeleted": 0,
     "RowId": "NULL",
     "CityCode": "TUNI",
     "placeid": "NULL",
     "GoogleCityName": "East Godavari",
     "Latitude": 17.3615635,
     "Longitude": 82.5459042999999
    },
    {
     "StateId": 2,
     "CityName": "Venkatgiri",
     "Id": 299,
     "IsActive": 1,
     "CreatedBy": "NULL",
     "CreatedDate": "NULL",
     "ModifiedBy": 1,
     "ModifiedDate": "32:26.8",
     "IsDeleted": 0,
     "RowId": "NULL",
     "CityCode": "VENI",
     "GoogleCityName": "Sri Potti Sriramulu Nellore District",
     "Latitude": 13.9628978,
     "Longitude": 79.5884368999999
    },
    {
     "StateId": 2,
     "CityName": "Vijayawada",
     "Id": 301,
     "IsActive": 1,
     "CreatedBy": "NULL",
     "CreatedDate": "NULL",
     "ModifiedBy": "NULL",
     "ModifiedDate": "11:15.4",
     "IsDeleted": 0,
     "RowId": "NULL",
     "CityCode": "VGA",
     "placeid": "NULL",
     "GoogleCityName": "Krishna",
     "Latitude": 16.5061743,
     "Longitude": 80.6480153
    },
    {
     "StateId": 2,
     "CityName": "Vinukonda",
     "Id": 304,
     "IsActive": 1,
     "CreatedBy": "NULL",
     "CreatedDate": "NULL",
     "ModifiedBy": 1,
     "ModifiedDate": "32:26.8",
     "IsDeleted": 0,
     "RowId": "NULL",
     "CityCode": "VINA",
     "GoogleCityName": "Guntur",
     "Latitude": 16.0568398,
     "Longitude": 79.7453318
    },
    {
     "StateId": 2,
     "CityName": "Visakhapatnam",
     "Id": 305,
     "IsActive": 1,
     "CreatedBy": "NULL",
     "CreatedDate": "NULL",
     "ModifiedBy": "NULL",
     "ModifiedDate": "11:15.4",
     "IsDeleted": 0,
     "RowId": "NULL",
     "CityCode": "VTZ",
     "placeid": "NULL",
     "GoogleCityName": "Vishakhapatnam",
     "Latitude": 17.6868159,
     "Longitude": 83.2184815
    },
    {
     "StateId": 2,
     "CityName": "Vizayanagaram",
     "Id": 306,
     "IsActive": 1,
     "CreatedBy": "NULL",
     "CreatedDate": "NULL",
     "ModifiedBy": "NULL",
     "ModifiedDate": "11:15.4",
     "IsDeleted": 0,
     "RowId": "NULL",
     "CityCode": "VIZMY",
     "placeid": "NULL",
     "GoogleCityName": "Vizianagaram",
     "Latitude": 18.1066576,
     "Longitude": 83.3955505999999
    },
    {
     "StateId": 2,
     "CityName": "Vizianagaram",
     "Id": 307,
     "IsActive": 1,
     "CreatedBy": "NULL",
     "CreatedDate": "NULL",
     "ModifiedBy": "NULL",
     "ModifiedDate": "11:15.5",
     "IsDeleted": 0,
     "RowId": "NULL",
     "CityCode": "VIZMA",
     "placeid": "NULL",
     "GoogleCityName": "Vizianagaram",
     "Latitude": 18.1066576,
     "Longitude": 83.3955505999999
    },
    {
     "StateId": 2,
     "CityName": "Warangal",
     "Id": 310,
     "IsActive": 1,
     "CreatedBy": "NULL",
     "CreatedDate": "NULL",
     "ModifiedBy": "NULL",
     "ModifiedDate": "11:15.5",
     "IsDeleted": 0,
     "RowId": "NULL",
     "CityCode": "WAR",
     "placeid": "NULL",
     "GoogleCityName": "Warangal",
     "Latitude": 17.9689008,
     "Longitude": 79.5940543999999
    },
    {
     "StateId": 2,
     "CityName": "Zahirabad",
     "Id": 319,
     "IsActive": 1,
     "CreatedBy": "NULL",
     "CreatedDate": "NULL",
     "ModifiedBy": "NULL",
     "ModifiedDate": "11:15.5",
     "IsDeleted": 0,
     "RowId": "NULL",
     "CityCode": "ZAHDR",
     "placeid": "NULL",
     "GoogleCityName": "Medak",
     "Latitude": 17.6588887,
     "Longitude": 77.6053246
    },
    {
     "StateId": 3,
     "CityName": "Itanagar",
     "Id": 332,
     "IsActive": 1,
     "CreatedBy": "NULL",
     "CreatedDate": "NULL",
     "ModifiedBy": "NULL",
     "ModifiedDate": "11:15.5",
     "IsDeleted": 0,
     "RowId": "NULL",
     "CityCode": "ITA",
     "placeid": "NULL",
     "GoogleCityName": "NULL",
     "Latitude": 27.0843682,
     "Longitude": 93.6053163
    },
    {
     "StateId": 3,
     "CityName": "Jairampur",
     "Id": 333,
     "IsActive": 1,
     "CreatedBy": "NULL",
     "CreatedDate": "NULL",
     "ModifiedBy": "NULL",
     "ModifiedDate": "11:15.5",
     "IsDeleted": 0,
     "RowId": "NULL",
     "CityCode": "JAIRAA",
     "placeid": "NULL",
     "GoogleCityName": "Tinsukia",
     "Latitude": 27.3520442,
     "Longitude": 96.0158479
    },
    {
     "StateId": 3,
     "CityName": "Passighat",
     "Id": 349,
     "IsActive": 1,
     "CreatedBy": "NULL",
     "CreatedDate": "NULL",
     "ModifiedBy": "NULL",
     "ModifiedDate": "11:15.6",
     "IsDeleted": 0,
     "RowId": "NULL",
     "CityCode": "PASTI",
     "placeid": "NULL",
     "GoogleCityName": "NULL",
     "Latitude": 28.0618646,
     "Longitude": 95.3259629
    },
    {
     "StateId": 3,
     "CityName": "Tawang",
     "Id": 356,
     "IsActive": 1,
     "CreatedBy": "NULL",
     "CreatedDate": "NULL",
     "ModifiedBy": "NULL",
     "ModifiedDate": "11:15.6",
     "IsDeleted": 0,
     "RowId": "NULL",
     "CityCode": "TAWG",
     "placeid": "NULL",
     "GoogleCityName": "NULL",
     "Latitude": 27.5860574,
     "Longitude": 91.8594062
    },
    {
     "StateId": 4,
     "CityName": "Barpeta Road",
     "Id": 366,
     "IsActive": 1,
     "CreatedBy": "NULL",
     "CreatedDate": "NULL",
     "ModifiedBy": "NULL",
     "ModifiedDate": "11:15.6",
     "IsDeleted": 0,
     "RowId": "NULL",
     "CityCode": "BAODEA",
     "placeid": "NULL",
     "GoogleCityName": "Barpeta",
     "Latitude": 26.5016673,
     "Longitude": 90.9701192
    },
    {
     "StateId": 4,
     "CityName": "Bokakhat",
     "Id": 371,
     "IsActive": 1,
     "CreatedBy": "NULL",
     "CreatedDate": "NULL",
     "ModifiedBy": "NULL",
     "ModifiedDate": "11:15.6",
     "IsDeleted": 0,
     "RowId": "NULL",
     "CityCode": "BOKT",
     "placeid": "NULL",
     "GoogleCityName": "Karbi Anglong",
     "Latitude": 26.6214693,
     "Longitude": 93.6116493999999
    },
    {
     "StateId": 4,
     "CityName": "Bongaigaon",
     "Id": 373,
     "IsActive": 1,
     "CreatedBy": "NULL",
     "CreatedDate": "NULL",
     "ModifiedBy": "NULL",
     "ModifiedDate": "11:15.6",
     "IsDeleted": 0,
     "RowId": "NULL",
     "CityCode": "BONNA",
     "placeid": "NULL",
     "GoogleCityName": "Bongaigaon",
     "Latitude": 26.5030072,
     "Longitude": 90.5535724
    },
    {
     "StateId": 4,
     "CityName": "Darrang",
     "Id": 376,
     "IsActive": 1,
     "CreatedBy": "NULL",
     "CreatedDate": "NULL",
     "ModifiedBy": "NULL",
     "ModifiedDate": "11:15.6",
     "IsDeleted": 0,
     "RowId": "NULL",
     "CityCode": "DARG",
     "placeid": "NULL",
     "GoogleCityName": "Darrang",
     "Latitude": 26.4522876,
     "Longitude": 92.0273189999999
    },
    {
     "StateId": 4,
     "CityName": "Dhemaji",
     "Id": 378,
     "IsActive": 1,
     "CreatedBy": "NULL",
     "CreatedDate": "NULL",
     "ModifiedBy": "NULL",
     "ModifiedDate": "11:15.6",
     "IsDeleted": 0,
     "RowId": "NULL",
     "CityCode": "DHEI",
     "placeid": "NULL",
     "GoogleCityName": "Dhemaji",
     "Latitude": 27.4811106,
     "Longitude": 94.5572847
    },
    {
     "StateId": 4,
     "CityName": "Dhubri",
     "Id": 379,
     "IsActive": 1,
     "CreatedBy": "NULL",
     "CreatedDate": "NULL",
     "ModifiedBy": "NULL",
     "ModifiedDate": "11:15.6",
     "IsDeleted": 0,
     "RowId": "NULL",
     "CityCode": "DHUI",
     "placeid": "NULL",
     "GoogleCityName": "Dhubri",
     "Latitude": 26.020698199999998,
     "Longitude": 89.9743463
    },
    {
     "StateId": 4,
     "CityName": "Dibrugarh",
     "Id": 380,
     "IsActive": 1,
     "CreatedBy": "NULL",
     "CreatedDate": "NULL",
     "ModifiedBy": "NULL",
     "ModifiedDate": "11:15.6",
     "IsDeleted": 0,
     "RowId": "NULL",
     "CityCode": "DIB",
     "placeid": "NULL",
     "GoogleCityName": "Dibrugarh",
     "Latitude": 27.4728327,
     "Longitude": 94.9119621
    },
    {
     "StateId": 4,
     "CityName": "Digboi",
     "Id": 381,
     "IsActive": 1,
     "CreatedBy": "NULL",
     "CreatedDate": "NULL",
     "ModifiedBy": "NULL",
     "ModifiedDate": "11:15.6",
     "IsDeleted": 0,
     "RowId": "NULL",
     "CityCode": "DIGIO",
     "placeid": "NULL",
     "GoogleCityName": "Tinsukia",
     "Latitude": 27.3951473,
     "Longitude": 95.6300232999999
    },
    {
     "StateId": 4,
     "CityName": "Diphu",
     "Id": 382,
     "IsActive": 1,
     "CreatedBy": "NULL",
     "CreatedDate": "NULL",
     "ModifiedBy": "NULL",
     "ModifiedDate": "11:15.6",
     "IsDeleted": 0,
     "RowId": "NULL",
     "CityCode": "DIPU",
     "placeid": "NULL",
     "GoogleCityName": "Karbi Anglong",
     "Latitude": 25.846525,
     "Longitude": 93.4298745999999
    },
    {
     "StateId": 4,
     "CityName": "Goalpara",
     "Id": 383,
     "IsActive": 1,
     "CreatedBy": "NULL",
     "CreatedDate": "NULL",
     "ModifiedBy": "NULL",
     "ModifiedDate": "11:15.6",
     "IsDeleted": 0,
     "RowId": "NULL",
     "CityCode": "GOAA",
     "placeid": "NULL",
     "GoogleCityName": "Goalpara",
     "Latitude": 26.1641342,
     "Longitude": 90.6251540999999
    },
    {
     "StateId": 4,
     "CityName": "Golaghat",
     "Id": 385,
     "IsActive": 1,
     "CreatedBy": "NULL",
     "CreatedDate": "NULL",
     "ModifiedBy": "NULL",
     "ModifiedDate": "11:15.6",
     "IsDeleted": 0,
     "RowId": "NULL",
     "CityCode": "GOLT",
     "placeid": "NULL",
     "GoogleCityName": "Golaghat",
     "Latitude": 26.5238515,
     "Longitude": 93.9623369999999
    },
    {
     "StateId": 4,
     "CityName": "Guwahati",
     "Id": 386,
     "IsActive": 1,
     "CreatedBy": "NULL",
     "CreatedDate": "NULL",
     "ModifiedBy": "NULL",
     "ModifiedDate": "11:15.6",
     "IsDeleted": 0,
     "RowId": "NULL",
     "CityCode": "GAU",
     "placeid": "NULL",
     "GoogleCityName": "Kamrup",
     "Latitude": 26.1445169,
     "Longitude": 91.7362365
    },
    {
     "StateId": 4,
     "CityName": "Hojai",
     "Id": 390,
     "IsActive": 1,
     "CreatedBy": "NULL",
     "CreatedDate": "NULL",
     "ModifiedBy": "NULL",
     "ModifiedDate": "11:15.7",
     "IsDeleted": 0,
     "RowId": "NULL",
     "CityCode": "HOJI",
     "placeid": "NULL",
     "GoogleCityName": "Nagaon",
     "Latitude": 26.0016601,
     "Longitude": 92.847737
    },
    {
     "StateId": 4,
     "CityName": "Jorhat",
     "Id": 392,
     "IsActive": 1,
     "CreatedBy": "NULL",
     "CreatedDate": "NULL",
     "ModifiedBy": "NULL",
     "ModifiedDate": "11:15.7",
     "IsDeleted": 0,
     "RowId": "NULL",
     "CityCode": "JRH",
     "placeid": "NULL",
     "GoogleCityName": "Jorhat",
     "Latitude": 26.7509207,
     "Longitude": 94.2036696
    },
    {
     "StateId": 4,
     "CityName": "Karimganj",
     "Id": 395,
     "IsActive": 1,
     "CreatedBy": "NULL",
     "CreatedDate": "NULL",
     "ModifiedBy": "NULL",
     "ModifiedDate": "11:15.7",
     "IsDeleted": 0,
     "RowId": "NULL",
     "CityCode": "KARJ",
     "placeid": "NULL",
     "GoogleCityName": "Karimganj",
     "Latitude": 24.8649128,
     "Longitude": 92.3591531
    },
    {
     "StateId": 4,
     "CityName": "Lakhimpur",
     "Id": 398,
     "IsActive": 1,
     "CreatedBy": "NULL",
     "CreatedDate": "NULL",
     "ModifiedBy": "NULL",
     "ModifiedDate": "11:15.7",
     "IsDeleted": 0,
     "RowId": "NULL",
     "CityCode": "LAKRI",
     "placeid": "NULL",
     "GoogleCityName": "Lakhimpur",
     "Latitude": 27.2063587,
     "Longitude": 94.1513763999999
    },
    {
     "StateId": 4,
     "CityName": "Moranhat",
     "Id": 404,
     "IsActive": 1,
     "CreatedBy": "NULL",
     "CreatedDate": "NULL",
     "ModifiedBy": "NULL",
     "ModifiedDate": "11:15.7",
     "IsDeleted": 0,
     "RowId": "NULL",
     "CityCode": "MORT",
     "placeid": "NULL",
     "GoogleCityName": "Sivasagar",
     "Latitude": 27.1787478,
     "Longitude": 94.9169196
    },
    {
     "StateId": 4,
     "CityName": "Nagaon",
     "Id": 406,
     "IsActive": 1,
     "CreatedBy": "NULL",
     "CreatedDate": "NULL",
     "ModifiedBy": "NULL",
     "ModifiedDate": "11:15.7",
     "IsDeleted": 0,
     "RowId": "NULL",
     "CityCode": "NAGN",
     "placeid": "NULL",
     "GoogleCityName": "Nagaon",
     "Latitude": 26.348009,
     "Longitude": 92.6838111
    },
    {
     "StateId": 4,
     "CityName": "Nalbari",
     "Id": 407,
     "IsActive": 1,
     "CreatedBy": "NULL",
     "CreatedDate": "NULL",
     "ModifiedBy": "NULL",
     "ModifiedDate": "11:15.7",
     "IsDeleted": 0,
     "RowId": "NULL",
     "CityCode": "NALIAA",
     "placeid": "NULL",
     "GoogleCityName": "Nalbari",
     "Latitude": 26.4446185,
     "Longitude": 91.4410527
    },
    {
     "StateId": 4,
     "CityName": "Silchar",
     "Id": 411,
     "IsActive": 1,
     "CreatedBy": "NULL",
     "CreatedDate": "NULL",
     "ModifiedBy": "NULL",
     "ModifiedDate": "11:15.7",
     "IsDeleted": 0,
     "RowId": "NULL",
     "CityCode": "SCR",
     "placeid": "NULL",
     "GoogleCityName": "Cachar",
     "Latitude": 24.8332708,
     "Longitude": 92.7789054
    },
    {
     "StateId": 4,
     "CityName": "Sivasagar",
     "Id": 412,
     "IsActive": 1,
     "CreatedBy": "NULL",
     "CreatedDate": "NULL",
     "ModifiedBy": "NULL",
     "ModifiedDate": "11:15.7",
     "IsDeleted": 0,
     "RowId": "NULL",
     "CityCode": "SIVASAG01",
     "placeid": "NULL",
     "GoogleCityName": "Sivasagar",
     "Latitude": 26.9826098,
     "Longitude": 94.6424521
    },
    {
     "StateId": 4,
     "CityName": "Sonitpur",
     "Id": 413,
     "IsActive": 1,
     "CreatedBy": "NULL",
     "CreatedDate": "NULL",
     "ModifiedBy": "NULL",
     "ModifiedDate": "11:15.7",
     "IsDeleted": 0,
     "RowId": "NULL",
     "CityCode": "SONRT",
     "placeid": "NULL",
     "GoogleCityName": "Sonitpur",
     "Latitude": 26.6738851,
     "Longitude": 92.8577105
    },
    {
     "StateId": 4,
     "CityName": "Tezpur",
     "Id": 415,
     "IsActive": 1,
     "CreatedBy": "NULL",
     "CreatedDate": "NULL",
     "ModifiedBy": "NULL",
     "ModifiedDate": "11:15.7",
     "IsDeleted": 0,
     "RowId": "NULL",
     "CityCode": "TEZ",
     "placeid": "NULL",
     "GoogleCityName": "Sonitpur",
     "Latitude": 26.6528495,
     "Longitude": 92.7925592
    },
    {
     "StateId": 4,
     "CityName": "Tinsukia",
     "Id": 416,
     "IsActive": 1,
     "CreatedBy": "NULL",
     "CreatedDate": "NULL",
     "ModifiedBy": "NULL",
     "ModifiedDate": "11:15.7",
     "IsDeleted": 0,
     "RowId": "NULL",
     "CityCode": "TIK",
     "placeid": "NULL",
     "GoogleCityName": "Tinsukia",
     "Latitude": 27.4885539,
     "Longitude": 95.355758
    },
    {
     "StateId": 5,
     "CityName": "Araria",
     "Id": 422,
     "IsActive": 1,
     "CreatedBy": "NULL",
     "CreatedDate": "NULL",
     "ModifiedBy": "NULL",
     "ModifiedDate": "11:15.7",
     "IsDeleted": 0,
     "RowId": "NULL",
     "CityCode": "ARAAI",
     "placeid": "NULL",
     "GoogleCityName": "Araria",
     "Latitude": 26.1324689,
     "Longitude": 87.4528067
    },
    {
     "StateId": 5,
     "CityName": "Arrah",
     "Id": 424,
     "IsActive": 1,
     "CreatedBy": "NULL",
     "CreatedDate": "NULL",
     "ModifiedBy": "NULL",
     "ModifiedDate": "11:15.7",
     "IsDeleted": 0,
     "RowId": "NULL",
     "CityCode": "ARRH",
     "placeid": "NULL",
     "GoogleCityName": "Bhojpur",
     "Latitude": 25.5541358,
     "Longitude": 84.6664797
    },
    {
     "StateId": 21,
     "CityName": "Aurangabad",
     "Id": 426,
     "IsActive": 1,
     "CreatedBy": "NULL",
     "CreatedDate": "NULL",
     "ModifiedBy": "NULL",
     "ModifiedDate": "11:15.8",
     "IsDeleted": 0,
     "RowId": "NULL",
     "CityCode": "ARGB",
     "placeid": "NULL",
     "GoogleCityName": "Aurangabad",
     "Latitude": 19.8761653,
     "Longitude": 75.3433139
    },
    {
     "StateId": 5,
     "CityName": "Bagaha",
     "Id": 427,
     "IsActive": 1,
     "CreatedBy": "NULL",
     "CreatedDate": "NULL",
     "ModifiedBy": "NULL",
     "ModifiedDate": "11:15.8",
     "IsDeleted": 0,
     "RowId": "NULL",
     "CityCode": "BAGAH",
     "placeid": "NULL",
     "GoogleCityName": "Pashchim Champaran",
     "Latitude": 27.1221959,
     "Longitude": 84.0722375
    },
    {
     "StateId": 5,
     "CityName": "Banka",
     "Id": 428,
     "IsActive": 1,
     "CreatedBy": "NULL",
     "CreatedDate": "NULL",
     "ModifiedBy": "NULL",
     "ModifiedDate": "11:15.8",
     "IsDeleted": 0,
     "RowId": "NULL",
     "CityCode": "BANAAB",
     "placeid": "NULL",
     "GoogleCityName": "Banka",
     "Latitude": 24.8874179,
     "Longitude": 86.919838
    },
    {
     "StateId": 5,
     "CityName": "Begusarai",
     "Id": 434,
     "IsActive": 1,
     "CreatedBy": "NULL",
     "CreatedDate": "NULL",
     "ModifiedBy": "NULL",
     "ModifiedDate": "11:15.8",
     "IsDeleted": 0,
     "RowId": "NULL",
     "CityCode": "BEGI",
     "placeid": "NULL",
     "GoogleCityName": "Begusarai",
     "Latitude": 25.4181638,
     "Longitude": 86.1271542
    },
    {
     "StateId": 5,
     "CityName": "Bettiah",
     "Id": 437,
     "IsActive": 1,
     "CreatedBy": "NULL",
     "CreatedDate": "NULL",
     "ModifiedBy": "NULL",
     "ModifiedDate": "11:15.8",
     "IsDeleted": 0,
     "RowId": "NULL",
     "CityCode": "BETH",
     "placeid": "NULL",
     "GoogleCityName": "Pashchim Champaran",
     "Latitude": 26.8025577,
     "Longitude": 84.520147
    },
    {
     "StateId": 5,
     "CityName": "Bhagalpur",
     "Id": 439,
     "IsActive": 1,
     "CreatedBy": "NULL",
     "CreatedDate": "NULL",
     "ModifiedBy": "NULL",
     "ModifiedDate": "11:15.8",
     "IsDeleted": 0,
     "RowId": "NULL",
     "CityCode": "BHARAB",
     "placeid": "NULL",
     "GoogleCityName": "Bhagalpur",
     "Latitude": 25.242453,
     "Longitude": 86.9842256
    },
    {
     "StateId": 5,
     "CityName": "Biharsharif",
     "Id": 442,
     "IsActive": 1,
     "CreatedBy": "NULL",
     "CreatedDate": "NULL",
     "ModifiedBy": "NULL",
     "ModifiedDate": "11:15.8",
     "IsDeleted": 0,
     "RowId": "NULL",
     "CityCode": "BIHF",
     "placeid": "NULL",
     "GoogleCityName": "Nalanda",
     "Latitude": 25.2049738,
     "Longitude": 85.517437
    },
    {
     "StateId": 5,
     "CityName": "Bikramganj",
     "Id": 444,
     "IsActive": 1,
     "CreatedBy": "NULL",
     "CreatedDate": "NULL",
     "ModifiedBy": "NULL",
     "ModifiedDate": "11:15.8",
     "IsDeleted": 0,
     "RowId": "NULL",
     "CityCode": "BIKJ",
     "placeid": "NULL",
     "GoogleCityName": "Rohtas",
     "Latitude": 25.2214162,
     "Longitude": 84.2639954
    },
    {
     "StateId": 5,
     "CityName": "Buxar",
     "Id": 446,
     "IsActive": 1,
     "CreatedBy": "NULL",
     "CreatedDate": "NULL",
     "ModifiedBy": "NULL",
     "ModifiedDate": "11:15.8",
     "IsDeleted": 0,
     "RowId": "NULL",
     "CityCode": "BUX",
     "placeid": "NULL",
     "GoogleCityName": "Buxar",
     "Latitude": 25.5647103,
     "Longitude": 83.9777482
    },
    {
     "StateId": 5,
     "CityName": "Chapara",
     "Id": 449,
     "IsActive": 1,
     "CreatedBy": "NULL",
     "CreatedDate": "NULL",
     "ModifiedBy": "NULL",
     "ModifiedDate": "11:15.8",
     "IsDeleted": 0,
     "RowId": "NULL",
     "CityCode": "CHAAAB",
     "placeid": "NULL",
     "GoogleCityName": "Saran",
     "Latitude": 25.7811397,
     "Longitude": 84.7543413
    },
    {
     "StateId": 5,
     "CityName": "Darbhanga",
     "Id": 452,
     "IsActive": 1,
     "CreatedBy": "NULL",
     "CreatedDate": "NULL",
     "ModifiedBy": "NULL",
     "ModifiedDate": "11:15.8",
     "IsDeleted": 0,
     "RowId": "NULL",
     "CityCode": "DARAH",
     "placeid": "NULL",
     "GoogleCityName": "Darbhanga",
     "Latitude": 26.1542045,
     "Longitude": 85.8918454
    },
    {
     "StateId": 5,
     "CityName": "Forbesganj",
     "Id": 458,
     "IsActive": 1,
     "CreatedBy": "NULL",
     "CreatedDate": "NULL",
     "ModifiedBy": "NULL",
     "ModifiedDate": "11:15.8",
     "IsDeleted": 0,
     "RowId": "NULL",
     "CityCode": "FORJ",
     "placeid": "NULL",
     "GoogleCityName": "Araria",
     "Latitude": 26.2986049,
     "Longitude": 87.268613
    },
    {
     "StateId": 5,
     "CityName": "Gaya",
     "Id": 459,
     "IsActive": 1,
     "CreatedBy": "NULL",
     "CreatedDate": "NULL",
     "ModifiedBy": "NULL",
     "ModifiedDate": "11:15.8",
     "IsDeleted": 0,
     "RowId": "NULL",
     "CityCode": "GAY",
     "placeid": "NULL",
     "GoogleCityName": "Gaya",
     "Latitude": 24.7913957,
     "Longitude": 85.0002336
    },
    {
     "StateId": 5,
     "CityName": "Gopalganj",
     "Id": 461,
     "IsActive": 1,
     "CreatedBy": "NULL",
     "CreatedDate": "NULL",
     "ModifiedBy": "NULL",
     "ModifiedDate": "11:15.8",
     "IsDeleted": 0,
     "RowId": "NULL",
     "CityCode": "GOPJLB",
     "placeid": "NULL",
     "GoogleCityName": "Gopalganj",
     "Latitude": 26.4831584,
     "Longitude": 84.43655
    },
    {
     "StateId": 5,
     "CityName": "Hajipur",
     "Id": 463,
     "IsActive": 1,
     "CreatedBy": "NULL",
     "CreatedDate": "NULL",
     "ModifiedBy": "NULL",
     "ModifiedDate": "11:15.8",
     "IsDeleted": 0,
     "RowId": "NULL",
     "CityCode": "HAJ",
     "placeid": "NULL",
     "GoogleCityName": "Vaishali",
     "Latitude": 25.6924354,
     "Longitude": 85.2083239999999
    },
    {
     "StateId": 5,
     "CityName": "Jainagar",
     "Id": 468,
     "IsActive": 1,
     "CreatedBy": "NULL",
     "CreatedDate": "NULL",
     "ModifiedBy": "NULL",
     "ModifiedDate": "11:15.9",
     "IsDeleted": 0,
     "RowId": "NULL",
     "CityCode": "JAIRAB",
     "placeid": "NULL",
     "GoogleCityName": "Madhubani",
     "Latitude": 26.5883988,
     "Longitude": 86.1370148
    },
    {
     "StateId": 5,
     "CityName": "Jamshedpur",
     "Id": 469,
     "IsActive": 1,
     "CreatedBy": "NULL",
     "CreatedDate": "NULL",
     "ModifiedBy": 1,
     "ModifiedDate": "32:26.8",
     "IsDeleted": 0,
     "RowId": "NULL",
     "GoogleCityName": "NULL",
     "Latitude": "NULL",
     "Longitude": "NULL"
    },
    {
     "StateId": 5,
     "CityName": "Jamui",
     "Id": 470,
     "IsActive": 1,
     "CreatedBy": "NULL",
     "CreatedDate": "NULL",
     "ModifiedBy": "NULL",
     "ModifiedDate": "11:15.9",
     "IsDeleted": 0,
     "RowId": "NULL",
     "CityCode": "JAMIIB",
     "placeid": "NULL",
     "GoogleCityName": "Jamui",
     "Latitude": 24.9195147,
     "Longitude": 86.224718
    },
    {
     "StateId": 5,
     "CityName": "Jehanabad",
     "Id": 471,
     "IsActive": 1,
     "CreatedBy": "NULL",
     "CreatedDate": "NULL",
     "ModifiedBy": "NULL",
     "ModifiedDate": "11:15.9",
     "IsDeleted": 0,
     "RowId": "NULL",
     "CityCode": "JEHD",
     "placeid": "NULL",
     "GoogleCityName": "Jehanabad",
     "Latitude": 25.2132649,
     "Longitude": 84.9853322
    },
    {
     "StateId": 5,
     "CityName": "Kahalgaon",
     "Id": 474,
     "IsActive": 1,
     "CreatedBy": "NULL",
     "CreatedDate": "NULL",
     "ModifiedBy": "NULL",
     "ModifiedDate": "11:15.9",
     "IsDeleted": 0,
     "RowId": "NULL",
     "CityCode": "KAHN",
     "placeid": "NULL",
     "GoogleCityName": "Bhagalpur",
     "Latitude": 25.2627223,
     "Longitude": 87.2366237
    },
    {
     "StateId": 5,
     "CityName": "Katihar",
     "Id": 476,
     "IsActive": 1,
     "CreatedBy": "NULL",
     "CreatedDate": "NULL",
     "ModifiedBy": "NULL",
     "ModifiedDate": "11:15.9",
     "IsDeleted": 0,
     "RowId": "NULL",
     "CityCode": "KATR",
     "placeid": "NULL",
     "GoogleCityName": "Katihar",
     "Latitude": 25.5540648,
     "Longitude": 87.5591073
    },
    {
     "StateId": 5,
     "CityName": "Khagaria",
     "Id": 478,
     "IsActive": 1,
     "CreatedBy": "NULL",
     "CreatedDate": "NULL",
     "ModifiedBy": "NULL",
     "ModifiedDate": "11:15.9",
     "IsDeleted": 0,
     "RowId": "NULL",
     "CityCode": "KHAAAB",
     "placeid": "NULL",
     "GoogleCityName": "Khagaria",
     "Latitude": 25.50452,
     "Longitude": 86.4701415999999
    },
    {
     "StateId": 5,
     "CityName": "Kishanganj",
     "Id": 479,
     "IsActive": 1,
     "CreatedBy": "NULL",
     "CreatedDate": "NULL",
     "ModifiedBy": "NULL",
     "ModifiedDate": "11:15.9",
     "IsDeleted": 0,
     "RowId": "NULL",
     "CityCode": "KGJB",
     "placeid": "NULL",
     "GoogleCityName": "Kishanganj",
     "Latitude": 26.0982167,
     "Longitude": 87.9450379
    },
    {
     "StateId": 5,
     "CityName": "Lakhisarai",
     "Id": 481,
     "IsActive": 1,
     "CreatedBy": "NULL",
     "CreatedDate": "NULL",
     "ModifiedBy": "NULL",
     "ModifiedDate": "11:15.9",
     "IsDeleted": 0,
     "RowId": "NULL",
     "CityCode": "LAKIIB",
     "placeid": "NULL",
     "GoogleCityName": "Lakhisarai",
     "Latitude": 25.1571454,
     "Longitude": 86.0951592
    },
    {
     "StateId": 5,
     "CityName": "Madhepura",
     "Id": 482,
     "IsActive": 1,
     "CreatedBy": "NULL",
     "CreatedDate": "NULL",
     "ModifiedBy": "NULL",
     "ModifiedDate": "11:15.9",
     "IsDeleted": 0,
     "RowId": "NULL",
     "CityCode": "MADAE",
     "placeid": "NULL",
     "GoogleCityName": "Madhepura",
     "Latitude": 25.9239677,
     "Longitude": 86.7946387
    },
    {
     "StateId": 5,
     "CityName": "Madhubani",
     "Id": 483,
     "IsActive": 1,
     "CreatedBy": "NULL",
     "CreatedDate": "NULL",
     "ModifiedBy": "NULL",
     "ModifiedDate": "11:15.9",
     "IsDeleted": 0,
     "RowId": "NULL",
     "CityCode": "MADIU",
     "placeid": "NULL",
     "GoogleCityName": "Madhubani",
     "Latitude": 26.3482938,
     "Longitude": 86.0711661
    },
    {
     "StateId": 5,
     "CityName": "Mohania",
     "Id": 489,
     "IsActive": 1,
     "CreatedBy": "NULL",
     "CreatedDate": "NULL",
     "ModifiedBy": "NULL",
     "ModifiedDate": "11:15.9",
     "IsDeleted": 0,
     "RowId": "NULL",
     "CityCode": "MOHANB",
     "placeid": "NULL",
     "GoogleCityName": "Kaimur",
     "Latitude": 25.1676631,
     "Longitude": 83.6168787
    },
    {
     "StateId": 5,
     "CityName": "Motihari",
     "Id": 491,
     "IsActive": 1,
     "CreatedBy": "NULL",
     "CreatedDate": "NULL",
     "ModifiedBy": "NULL",
     "ModifiedDate": "11:15.9",
     "IsDeleted": 0,
     "RowId": "NULL",
     "CityCode": "MOTI",
     "placeid": "NULL",
     "GoogleCityName": "Purvi Champaran",
     "Latitude": 26.6438482,
     "Longitude": 84.9040337
    },
    {
     "StateId": 5,
     "CityName": "Munger",
     "Id": 493,
     "IsActive": 1,
     "CreatedBy": "NULL",
     "CreatedDate": "NULL",
     "ModifiedBy": "NULL",
     "ModifiedDate": "11:15.9",
     "IsDeleted": 0,
     "RowId": "NULL",
     "CityCode": "MUNR",
     "placeid": "NULL",
     "GoogleCityName": "Munger",
     "Latitude": 25.3707993,
     "Longitude": 86.4733902999999
    },
    {
     "StateId": 5,
     "CityName": "Muzaffarpur",
     "Id": 494,
     "IsActive": 1,
     "CreatedBy": "NULL",
     "CreatedDate": "NULL",
     "ModifiedBy": "NULL",
     "ModifiedDate": "11:15.9",
     "IsDeleted": 0,
     "RowId": "NULL",
     "CityCode": "MAU",
     "placeid": "NULL",
     "GoogleCityName": "Muzaffarpur",
     "Latitude": 26.1196607,
     "Longitude": 85.390982
    },
    {
     "StateId": 5,
     "CityName": "Nalanda",
     "Id": 496,
     "IsActive": 1,
     "CreatedBy": "NULL",
     "CreatedDate": "NULL",
     "ModifiedBy": "NULL",
     "ModifiedDate": "11:15.9",
     "IsDeleted": 0,
     "RowId": "NULL",
     "CityCode": "NALAN",
     "placeid": "NULL",
     "GoogleCityName": "Nalanda",
     "Latitude": 25.1240603,
     "Longitude": 85.4594748999999
    },
    {
     "StateId": 5,
     "CityName": "Narkatiaganj",
     "Id": 497,
     "IsActive": 1,
     "CreatedBy": "NULL",
     "CreatedDate": "NULL",
     "ModifiedBy": "NULL",
     "ModifiedDate": "11:15.9",
     "IsDeleted": 0,
     "RowId": "NULL",
     "CityCode": "NARJ",
     "placeid": "NULL",
     "GoogleCityName": "Pashchim Champaran",
     "Latitude": 27.1063462,
     "Longitude": 84.4749925
    },
    {
     "StateId": 5,
     "CityName": "Naugachia",
     "Id": 498,
     "IsActive": 1,
     "CreatedBy": "NULL",
     "CreatedDate": "NULL",
     "ModifiedBy": 1,
     "ModifiedDate": "32:26.8",
     "IsDeleted": 0,
     "RowId": "NULL",
     "CityCode": "NAUA",
     "GoogleCityName": "Bhagalpur",
     "Latitude": 25.387344,
     "Longitude": 87.0979867
    },
    {
     "StateId": 5,
     "CityName": "Nawada",
     "Id": 499,
     "IsActive": 1,
     "CreatedBy": "NULL",
     "CreatedDate": "NULL",
     "ModifiedBy": "NULL",
     "ModifiedDate": "11:15.9",
     "IsDeleted": 0,
     "RowId": "NULL",
     "CityCode": "NAWAD",
     "placeid": "NULL",
     "GoogleCityName": "Nawada",
     "Latitude": 24.8866859,
     "Longitude": 85.5434571999999
    },
    {
     "StateId": 5,
     "CityName": "Patna",
     "Id": 502,
     "IsActive": 1,
     "CreatedBy": "NULL",
     "CreatedDate": "NULL",
     "ModifiedBy": "NULL",
     "ModifiedDate": "11:15.9",
     "IsDeleted": 0,
     "RowId": "NULL",
     "CityCode": "PAT",
     "placeid": "NULL",
     "GoogleCityName": "Patna",
     "Latitude": 25.5940947,
     "Longitude": 85.1375645
    },
    {
     "StateId": 5,
     "CityName": "Purnia",
     "Id": 507,
     "IsActive": 1,
     "CreatedBy": "NULL",
     "CreatedDate": "NULL",
     "ModifiedBy": "NULL",
     "ModifiedDate": "11:16.0",
     "IsDeleted": 0,
     "RowId": "NULL",
     "CityCode": "PURAI",
     "placeid": "NULL",
     "GoogleCityName": "Purnia",
     "Latitude": 25.7771391,
     "Longitude": 87.4752551
    },
    {
     "StateId": 5,
     "CityName": "Raxaul",
     "Id": 512,
     "IsActive": 1,
     "CreatedBy": "NULL",
     "CreatedDate": "NULL",
     "ModifiedBy": "NULL",
     "ModifiedDate": "11:16.0",
     "IsDeleted": 0,
     "RowId": "NULL",
     "CityCode": "RAXL",
     "placeid": "NULL",
     "GoogleCityName": "Purvi Champaran",
     "Latitude": 26.9797677,
     "Longitude": 84.8515804
    },
    {
     "StateId": 5,
     "CityName": "Rohtas",
     "Id": 513,
     "IsActive": 1,
     "CreatedBy": "NULL",
     "CreatedDate": "NULL",
     "ModifiedBy": "NULL",
     "ModifiedDate": "11:16.0",
     "IsDeleted": 0,
     "RowId": "NULL",
     "CityCode": "ROHS",
     "placeid": "NULL",
     "GoogleCityName": "Rohtas",
     "Latitude": 24.6287405,
     "Longitude": 83.9201655999999
    },
    {
     "StateId": 5,
     "CityName": "Saharsa",
     "Id": 516,
     "IsActive": 1,
     "CreatedBy": "NULL",
     "CreatedDate": "NULL",
     "ModifiedBy": "NULL",
     "ModifiedDate": "11:16.0",
     "IsDeleted": 0,
     "RowId": "NULL",
     "CityCode": "SAHA",
     "placeid": "NULL",
     "GoogleCityName": "Saharsa",
     "Latitude": 25.8834961,
     "Longitude": 86.6006249
    },
    {
     "StateId": 5,
     "CityName": "Samastipur",
     "Id": 517,
     "IsActive": 1,
     "CreatedBy": "NULL",
     "CreatedDate": "NULL",
     "ModifiedBy": "NULL",
     "ModifiedDate": "11:16.0",
     "IsDeleted": 0,
     "RowId": "NULL",
     "CityCode": "SAMRS",
     "placeid": "NULL",
     "GoogleCityName": "Samastipur",
     "Latitude": 25.8560271,
     "Longitude": 85.7868233
    },
    {
     "StateId": 5,
     "CityName": "Saran",
     "Id": 518,
     "IsActive": 1,
     "CreatedBy": "NULL",
     "CreatedDate": "NULL",
     "ModifiedBy": "NULL",
     "ModifiedDate": "11:16.0",
     "IsDeleted": 0,
     "RowId": "NULL",
     "CityCode": "SARN",
     "placeid": "NULL",
     "GoogleCityName": "Saran",
     "Latitude": 25.7765249,
     "Longitude": 84.7380858
    },
    {
     "StateId": 5,
     "CityName": "Sasaram",
     "Id": 519,
     "IsActive": 1,
     "CreatedBy": "NULL",
     "CreatedDate": "NULL",
     "ModifiedBy": "NULL",
     "ModifiedDate": "11:16.0",
     "IsDeleted": 0,
     "RowId": "NULL",
     "CityCode": "SASM",
     "placeid": "NULL",
     "GoogleCityName": "Rohtas",
     "Latitude": 24.9538803,
     "Longitude": 84.0142865999999
    },
    {
     "StateId": 5,
     "CityName": "Sheikhpura",
     "Id": 521,
     "IsActive": 1,
     "CreatedBy": "NULL",
     "CreatedDate": "NULL",
     "ModifiedBy": "NULL",
     "ModifiedDate": "11:16.0",
     "IsDeleted": 0,
     "RowId": "NULL",
     "CityCode": "SHEAK",
     "placeid": "NULL",
     "GoogleCityName": "Sheikhpura",
     "Latitude": 25.1416937,
     "Longitude": 85.8628914999999
    },
    {
     "StateId": 5,
     "CityName": "Sitamarhi",
     "Id": 526,
     "IsActive": 1,
     "CreatedBy": "NULL",
     "CreatedDate": "NULL",
     "ModifiedBy": "NULL",
     "ModifiedDate": "11:16.0",
     "IsDeleted": 0,
     "RowId": "NULL",
     "CityCode": "SITI",
     "placeid": "NULL",
     "GoogleCityName": "Sitamarhi",
     "Latitude": 26.5886976,
     "Longitude": 85.5012971
    },
    {
     "StateId": 5,
     "CityName": "Siwan",
     "Id": 527,
     "IsActive": 1,
     "CreatedBy": "NULL",
     "CreatedDate": "NULL",
     "ModifiedBy": "NULL",
     "ModifiedDate": "11:16.0",
     "IsDeleted": 0,
     "RowId": "NULL",
     "CityCode": "SIW",
     "placeid": "NULL",
     "GoogleCityName": "Siwan",
     "Latitude": 26.2243204,
     "Longitude": 84.3599953
    },
    {
     "StateId": 5,
     "CityName": "Supaul",
     "Id": 529,
     "IsActive": 1,
     "CreatedBy": "NULL",
     "CreatedDate": "NULL",
     "ModifiedBy": "NULL",
     "ModifiedDate": "11:16.0",
     "IsDeleted": 0,
     "RowId": "NULL",
     "CityCode": "SUPL",
     "placeid": "NULL",
     "GoogleCityName": "Supaul",
     "Latitude": 26.1233718,
     "Longitude": 86.6045134
    },
    {
     "StateId": 6,
     "CityName": "Chandigarh",
     "Id": 535,
     "IsActive": 1,
     "CreatedBy": "NULL",
     "CreatedDate": "NULL",
     "ModifiedBy": "NULL",
     "ModifiedDate": "11:16.0",
     "IsDeleted": 0,
     "RowId": "NULL",
     "CityCode": "IXCC",
     "placeid": "NULL",
     "GoogleCityName": "Chandigarh",
     "Latitude": 30.7333148,
     "Longitude": 76.7794179
    },
    {
     "StateId": 6,
     "CityName": "Mani Marja",
     "Id": 536,
     "IsActive": 1,
     "CreatedBy": "NULL",
     "CreatedDate": "NULL",
     "ModifiedBy": "NULL",
     "ModifiedDate": "11:16.0",
     "IsDeleted": 0,
     "RowId": "NULL",
     "CityCode": "MANA ",
     "placeid": "NULL",
     "GoogleCityName": "Panchkula",
     "Latitude": 30.720226,
     "Longitude": 76.8374944999999
    },
    {
     "StateId": 7,
     "CityName": "Ambikapur",
     "Id": 537,
     "IsActive": 1,
     "CreatedBy": "NULL",
     "CreatedDate": "NULL",
     "ModifiedBy": "NULL",
     "ModifiedDate": "11:16.0",
     "IsDeleted": 0,
     "RowId": "NULL",
     "CityCode": "AMBRK",
     "placeid": "NULL",
     "GoogleCityName": "Surguja",
     "Latitude": 23.1294374,
     "Longitude": 83.1861138
    },
    {
     "StateId": 7,
     "CityName": "Baikunthpur",
     "Id": 543,
     "IsActive": 1,
     "CreatedBy": "NULL",
     "CreatedDate": "NULL",
     "ModifiedBy": "NULL",
     "ModifiedDate": "11:16.0",
     "IsDeleted": 0,
     "RowId": "NULL",
     "CityCode": "BAIRU",
     "placeid": "NULL",
     "GoogleCityName": "Koriya",
     "Latitude": 23.2713487,
     "Longitude": 82.5564559
    },
    {
     "StateId": 7,
     "CityName": "Balod",
     "Id": 544,
     "IsActive": 1,
     "CreatedBy": "NULL",
     "CreatedDate": "NULL",
     "ModifiedBy": 1,
     "ModifiedDate": "32:26.8",
     "IsDeleted": 0,
     "RowId": "NULL",
     "CityCode": "BALD",
     "GoogleCityName": "Balod",
     "Latitude": 20.7270655,
     "Longitude": 81.2055798
    },
    {
     "StateId": 7,
     "CityName": "Balodabazar",
     "Id": 545,
     "IsActive": 1,
     "CreatedBy": "NULL",
     "CreatedDate": "NULL",
     "ModifiedBy": "NULL",
     "ModifiedDate": "11:16.0",
     "IsDeleted": 0,
     "RowId": "NULL",
     "CityCode": "BALRD",
     "placeid": "NULL",
     "GoogleCityName": "Raipur",
     "Latitude": 21.6569173,
     "Longitude": 82.1591962999999
    },
    {
     "StateId": 7,
     "CityName": "Balrampur",
     "Id": 546,
     "IsActive": 1,
     "CreatedBy": "NULL",
     "CreatedDate": "NULL",
     "ModifiedBy": "NULL",
     "ModifiedDate": "11:16.0",
     "IsDeleted": 0,
     "RowId": "NULL",
     "CityCode": "XBPC",
     "placeid": "NULL",
     "GoogleCityName": "Balrampur",
     "Latitude": 23.611174,
     "Longitude": 83.610896
    },
    {
     "StateId": 7,
     "CityName": "Basana",
     "Id": 548,
     "IsActive": 1,
     "CreatedBy": "NULL",
     "CreatedDate": "NULL",
     "ModifiedBy": "NULL",
     "ModifiedDate": "11:16.1",
     "IsDeleted": 0,
     "RowId": "NULL",
     "CityCode": "BASAN",
     "placeid": "NULL",
     "GoogleCityName": "Mahasamund",
     "Latitude": 21.2777569,
     "Longitude": 82.8236678
    },
    {
     "StateId": 7,
     "CityName": "Bastar",
     "Id": 550,
     "IsActive": 1,
     "CreatedBy": "NULL",
     "CreatedDate": "NULL",
     "ModifiedBy": "NULL",
     "ModifiedDate": "11:16.1",
     "IsDeleted": 0,
     "RowId": "NULL",
     "CityCode": "BATRAC",
     "placeid": "NULL",
     "GoogleCityName": "Bastar",
     "Latitude": 19.2073279,
     "Longitude": 81.9338685
    },
    {
     "StateId": 7,
     "CityName": "Bemetara",
     "Id": 552,
     "IsActive": 1,
     "CreatedBy": "NULL",
     "CreatedDate": "NULL",
     "ModifiedBy": "NULL",
     "ModifiedDate": "11:16.1",
     "IsDeleted": 0,
     "RowId": "NULL",
     "CityCode": "BEMA",
     "placeid": "NULL",
     "GoogleCityName": "Durg",
     "Latitude": 21.7140253,
     "Longitude": 81.5356149
    },
    {
     "StateId": 7,
     "CityName": "Bhanupratappur",
     "Id": 555,
     "IsActive": 1,
     "CreatedBy": "NULL",
     "CreatedDate": "NULL",
     "ModifiedBy": "NULL",
     "ModifiedDate": "11:16.1",
     "IsDeleted": 0,
     "RowId": "NULL",
     "CityCode": "BHARU",
     "placeid": "NULL",
     "GoogleCityName": "Kanker",
     "Latitude": 20.3035983,
     "Longitude": 81.0735736
    },
    {
     "StateId": 7,
     "CityName": "Bhatapara",
     "Id": 557,
     "IsActive": 1,
     "CreatedBy": "NULL",
     "CreatedDate": "NULL",
     "ModifiedBy": "NULL",
     "ModifiedDate": "11:16.1",
     "IsDeleted": 0,
     "RowId": "NULL",
     "CityCode": "BHAAAC",
     "placeid": "NULL",
     "GoogleCityName": "Baloda Bazar",
     "Latitude": 21.7370549,
     "Longitude": 81.947318
    },
    {
     "StateId": 7,
     "CityName": "Bhilai",
     "Id": 558,
     "IsActive": 1,
     "CreatedBy": "NULL",
     "CreatedDate": "NULL",
     "ModifiedBy": "NULL",
     "ModifiedDate": "11:16.1",
     "IsDeleted": 0,
     "RowId": "NULL",
     "CityCode": "XBL",
     "placeid": "NULL",
     "GoogleCityName": "Durg",
     "Latitude": 21.1938475,
     "Longitude": 81.3509416
    },
    {
     "StateId": 7,
     "CityName": "Bijapur",
     "Id": 561,
     "IsActive": 1,
     "CreatedBy": "NULL",
     "CreatedDate": "NULL",
     "ModifiedBy": "NULL",
     "ModifiedDate": "11:16.1",
     "IsDeleted": 0,
     "RowId": "NULL",
     "CityCode": "XBJC",
     "placeid": "NULL",
     "GoogleCityName": "Dantewada",
     "Latitude": 18.7977099,
     "Longitude": 80.8128636
    },
    {
     "StateId": 7,
     "CityName": "Bilaspur",
     "Id": 562,
     "IsActive": 1,
     "CreatedBy": "NULL",
     "CreatedDate": "NULL",
     "ModifiedBy": "NULL",
     "ModifiedDate": "11:16.1",
     "IsDeleted": 0,
     "RowId": "NULL",
     "CityCode": "BLOC",
     "placeid": "NULL",
     "GoogleCityName": "Bilaspur",
     "Latitude": 22.0796545,
     "Longitude": 82.1409152
    },
    {
     "StateId": 7,
     "CityName": "Dallirajhara",
     "Id": 571,
     "IsActive": 1,
     "CreatedBy": "NULL",
     "CreatedDate": "NULL",
     "ModifiedBy": "NULL",
     "ModifiedDate": "11:16.1",
     "IsDeleted": 0,
     "RowId": "NULL",
     "CityCode": "DALAI",
     "placeid": "NULL",
     "GoogleCityName": "Durg",
     "Latitude": 20.5814845,
     "Longitude": 81.0711219
    },
    {
     "StateId": 7,
     "CityName": "Dhamtari",
     "Id": 575,
     "IsActive": 1,
     "CreatedBy": "NULL",
     "CreatedDate": "NULL",
     "ModifiedBy": "NULL",
     "ModifiedDate": "11:16.1",
     "IsDeleted": 0,
     "RowId": "NULL",
     "CityCode": "DHAIT",
     "placeid": "NULL",
     "GoogleCityName": "Dhamtari",
     "Latitude": 20.7014999,
     "Longitude": 81.5541578999999
    },
    {
     "StateId": 7,
     "CityName": "Dongargarh",
     "Id": 577,
     "IsActive": 1,
     "CreatedBy": "NULL",
     "CreatedDate": "NULL",
     "ModifiedBy": "NULL",
     "ModifiedDate": "11:16.1",
     "IsDeleted": 0,
     "RowId": "NULL",
     "CityCode": "DONH",
     "placeid": "NULL",
     "GoogleCityName": "Rajnandgaon",
     "Latitude": 21.1870322,
     "Longitude": 80.7618636
    },
    {
     "StateId": 7,
     "CityName": "Durg",
     "Id": 578,
     "IsActive": 1,
     "CreatedBy": "NULL",
     "CreatedDate": "NULL",
     "ModifiedBy": "NULL",
     "ModifiedDate": "11:16.1",
     "IsDeleted": 0,
     "RowId": "NULL",
     "CityCode": "DRG",
     "placeid": "NULL",
     "GoogleCityName": "Durg",
     "Latitude": 21.1904494,
     "Longitude": 81.2849169
    },
    {
     "StateId": 7,
     "CityName": "Gariaband",
     "Id": 581,
     "IsActive": 1,
     "CreatedBy": "NULL",
     "CreatedDate": "NULL",
     "ModifiedBy": "NULL",
     "ModifiedDate": "11:16.1",
     "IsDeleted": 0,
     "RowId": "NULL",
     "CityCode": "GARD",
     "placeid": "NULL",
     "GoogleCityName": "Gariaband",
     "Latitude": 20.6347897,
     "Longitude": 82.0614974
    },
    {
     "StateId": 7,
     "CityName": "Jagdalpur",
     "Id": 586,
     "IsActive": 1,
     "CreatedBy": "NULL",
     "CreatedDate": "NULL",
     "ModifiedBy": "NULL",
     "ModifiedDate": "11:16.2",
     "IsDeleted": 0,
     "RowId": "NULL",
     "CityCode": "JGDC",
     "placeid": "NULL",
     "GoogleCityName": "Bastar",
     "Latitude": 19.0853926,
     "Longitude": 82.018317
    },
    {
     "StateId": 7,
     "CityName": "Janjgir",
     "Id": 587,
     "IsActive": 1,
     "CreatedBy": "NULL",
     "CreatedDate": "NULL",
     "ModifiedBy": "NULL",
     "ModifiedDate": "11:16.2",
     "IsDeleted": 0,
     "RowId": "NULL",
     "CityCode": "JANRG",
     "placeid": "NULL",
     "GoogleCityName": "Janjgir-Champa",
     "Latitude": 22.0120968,
     "Longitude": 82.5762910999999
    },
    {
     "StateId": 7,
     "CityName": "Janjgir-Champa",
     "Id": 588,
     "IsActive": 1,
     "CreatedBy": "NULL",
     "CreatedDate": "NULL",
     "ModifiedBy": "NULL",
     "ModifiedDate": "11:16.2",
     "IsDeleted": 0,
     "RowId": "NULL",
     "CityCode": "JANA",
     "placeid": "NULL",
     "GoogleCityName": "Janjgir-Champa",
     "Latitude": 21.9705529,
     "Longitude": 82.4752757
    },
    {
     "StateId": 7,
     "CityName": "Jashpur",
     "Id": 590,
     "IsActive": 1,
     "CreatedBy": "NULL",
     "CreatedDate": "NULL",
     "ModifiedBy": "NULL",
     "ModifiedDate": "11:16.2",
     "IsDeleted": 0,
     "RowId": "NULL",
     "CityCode": "JAPRPC",
     "placeid": "NULL",
     "GoogleCityName": "Jashpur",
     "Latitude": 22.8759331,
     "Longitude": 84.1381159
    },
    {
     "StateId": 7,
     "CityName": "Jashpurnagar",
     "Id": 591,
     "IsActive": 1,
     "CreatedBy": "NULL",
     "CreatedDate": "NULL",
     "ModifiedBy": "NULL",
     "ModifiedDate": "11:16.2",
     "IsDeleted": 0,
     "RowId": "NULL",
     "CityCode": "JAGRPC",
     "placeid": "NULL",
     "GoogleCityName": "Jashpur",
     "Latitude": 22.8759331,
     "Longitude": 84.1381159
    },
    {
     "StateId": 7,
     "CityName": "Kanker",
     "Id": 593,
     "IsActive": 1,
     "CreatedBy": "NULL",
     "CreatedDate": "NULL",
     "ModifiedBy": "NULL",
     "ModifiedDate": "11:16.2",
     "IsDeleted": 0,
     "RowId": "NULL",
     "CityCode": "KANRE",
     "placeid": "NULL",
     "GoogleCityName": "Kanker",
     "Latitude": 20.2675174,
     "Longitude": 81.4927385
    },
    {
     "StateId": 7,
     "CityName": "Kathghora",
     "Id": 596,
     "IsActive": 1,
     "CreatedBy": "NULL",
     "CreatedDate": "NULL",
     "ModifiedBy": "NULL",
     "ModifiedDate": "11:16.2",
     "IsDeleted": 0,
     "RowId": "NULL",
     "CityCode": "KATAG",
     "placeid": "NULL",
     "GoogleCityName": "Korba",
     "Latitude": 22.504966,
     "Longitude": 82.5456676
    },
    {
     "StateId": 7,
     "CityName": "Kawardha",
     "Id": 597,
     "IsActive": 1,
     "CreatedBy": "NULL",
     "CreatedDate": "NULL",
     "ModifiedBy": "NULL",
     "ModifiedDate": "11:16.2",
     "IsDeleted": 0,
     "RowId": "NULL",
     "CityCode": "KAWA",
     "placeid": "NULL",
     "GoogleCityName": "Kawardha",
     "Latitude": 22.0106092,
     "Longitude": 81.2359281999999
    },
    {
     "StateId": 7,
     "CityName": "Kondagaon",
     "Id": 600,
     "IsActive": 1,
     "CreatedBy": "NULL",
     "CreatedDate": "NULL",
     "ModifiedBy": "NULL",
     "ModifiedDate": "11:16.2",
     "IsDeleted": 0,
     "RowId": "NULL",
     "CityCode": "KONN",
     "placeid": "NULL",
     "GoogleCityName": "Kondagaon",
     "Latitude": 19.595851,
     "Longitude": 81.6637765
    },
    {
     "StateId": 7,
     "CityName": "Korba",
     "Id": 602,
     "IsActive": 1,
     "CreatedBy": "NULL",
     "CreatedDate": "NULL",
     "ModifiedBy": "NULL",
     "ModifiedDate": "11:16.2",
     "IsDeleted": 0,
     "RowId": "NULL",
     "CityCode": "KOR",
     "placeid": "NULL",
     "GoogleCityName": "Korba",
     "Latitude": 22.3594501,
     "Longitude": 82.7500594999999
    },
    {
     "StateId": 7,
     "CityName": "Kota",
     "Id": 604,
     "IsActive": 1,
     "CreatedBy": "NULL",
     "CreatedDate": "NULL",
     "ModifiedBy": 1,
     "ModifiedDate": "32:26.8",
     "IsDeleted": 0,
     "RowId": "NULL",
     "CityCode": "XOK",
     "GoogleCityName": "NULL",
     "Latitude": "NULL",
     "Longitude": "NULL"
    },
    {
     "StateId": 7,
     "CityName": "Mahasamund",
     "Id": 612,
     "IsActive": 1,
     "CreatedBy": "NULL",
     "CreatedDate": "NULL",
     "ModifiedBy": "NULL",
     "ModifiedDate": "11:16.2",
     "IsDeleted": 0,
     "RowId": "NULL",
     "CityCode": "MAHDSC",
     "placeid": "NULL",
     "GoogleCityName": "Mahasamund",
     "Latitude": 21.1124067,
     "Longitude": 82.095962
    },
    {
     "StateId": 7,
     "CityName": "Manendragarh",
     "Id": 614,
     "IsActive": 1,
     "CreatedBy": "NULL",
     "CreatedDate": "NULL",
     "ModifiedBy": "NULL",
     "ModifiedDate": "11:16.2",
     "IsDeleted": 0,
     "RowId": "NULL",
     "CityCode": "MANHN",
     "placeid": "NULL",
     "GoogleCityName": "Koriya",
     "Latitude": 23.2133889,
     "Longitude": 82.1936679
    },
    {
     "StateId": 7,
     "CityName": "Mungeli",
     "Id": 618,
     "IsActive": 1,
     "CreatedBy": "NULL",
     "CreatedDate": "NULL",
     "ModifiedBy": "NULL",
     "ModifiedDate": "11:16.2",
     "IsDeleted": 0,
     "RowId": "NULL",
     "CityCode": "MUNIE",
     "placeid": "NULL",
     "GoogleCityName": "Bilaspur",
     "Latitude": 22.0685419,
     "Longitude": 81.6856808
    },
    {
     "StateId": 7,
     "CityName": "Pali",
     "Id": 627,
     "IsActive": 1,
     "CreatedBy": "NULL",
     "CreatedDate": "NULL",
     "ModifiedBy": 1,
     "ModifiedDate": "32:26.8",
     "IsDeleted": 0,
     "RowId": "NULL",
     "CityCode": "XLAC",
     "GoogleCityName": "Korba",
     "Latitude": 22.3753255,
     "Longitude": 82.3264097
    },
    {
     "StateId": 7,
     "CityName": "Patan",
     "Id": 632,
     "IsActive": 1,
     "CreatedBy": "NULL",
     "CreatedDate": "NULL",
     "ModifiedBy": 1,
     "ModifiedDate": "32:26.8",
     "IsDeleted": 0,
     "RowId": "NULL",
     "CityCode": "PATNC",
     "GoogleCityName": "Durg",
     "Latitude": 21.0357648,
     "Longitude": 81.5456384
    },
    {
     "StateId": 7,
     "CityName": "Pathalgaon",
     "Id": 633,
     "IsActive": 1,
     "CreatedBy": "NULL",
     "CreatedDate": "NULL",
     "ModifiedBy": "NULL",
     "ModifiedDate": "11:16.3",
     "IsDeleted": 0,
     "RowId": "NULL",
     "CityCode": "PATNA",
     "placeid": "NULL",
     "GoogleCityName": "Jashpur",
     "Latitude": 22.5563659,
     "Longitude": 83.4610206999999
    },
    {
     "StateId": 7,
     "CityName": "Pendra",
     "Id": 634,
     "IsActive": 1,
     "CreatedBy": "NULL",
     "CreatedDate": "NULL",
     "ModifiedBy": "NULL",
     "ModifiedDate": "11:16.3",
     "IsDeleted": 0,
     "RowId": "NULL",
     "CityCode": "PENAR",
     "placeid": "NULL",
     "GoogleCityName": "Bilaspur",
     "Latitude": 22.7726986,
     "Longitude": 81.9622402
    },
    {
     "StateId": 7,
     "CityName": "Raigarh",
     "Id": 637,
     "IsActive": 1,
     "CreatedBy": "NULL",
     "CreatedDate": "NULL",
     "ModifiedBy": "NULL",
     "ModifiedDate": "11:16.3",
     "IsDeleted": 0,
     "RowId": "NULL",
     "CityCode": "XRT",
     "placeid": "NULL",
     "GoogleCityName": "Raigarh",
     "Latitude": 21.8974003,
     "Longitude": 83.3949631999999
    },
    {
     "StateId": 7,
     "CityName": "Raipur",
     "Id": 638,
     "IsActive": 1,
     "CreatedBy": "NULL",
     "CreatedDate": "NULL",
     "ModifiedBy": "NULL",
     "ModifiedDate": "11:16.3",
     "IsDeleted": 0,
     "RowId": "NULL",
     "CityCode": "RPRC",
     "placeid": "NULL",
     "GoogleCityName": "Raipur",
     "Latitude": 21.2513844,
     "Longitude": 81.6296413
    },
    {
     "StateId": 7,
     "CityName": "Rajnandgaon",
     "Id": 639,
     "IsActive": 1,
     "CreatedBy": "NULL",
     "CreatedDate": "NULL",
     "ModifiedBy": "NULL",
     "ModifiedDate": "11:16.3",
     "IsDeleted": 0,
     "RowId": "NULL",
     "CityCode": "RAJN",
     "placeid": "NULL",
     "GoogleCityName": "Rajnandgaon",
     "Latitude": 21.0972123,
     "Longitude": 81.0337500999999
    },
    {
     "StateId": 7,
     "CityName": "Saraipali",
     "Id": 642,
     "IsActive": 1,
     "CreatedBy": "NULL",
     "CreatedDate": "NULL",
     "ModifiedBy": "NULL",
     "ModifiedDate": "11:16.3",
     "IsDeleted": 0,
     "RowId": "NULL",
     "CityCode": "SARI",
     "placeid": "NULL",
     "GoogleCityName": "Mahasamund",
     "Latitude": 21.3181081,
     "Longitude": 83.0221739999999
    },
    {
     "StateId": 7,
     "CityName": "Sukma",
     "Id": 648,
     "IsActive": 1,
     "CreatedBy": "NULL",
     "CreatedDate": "NULL",
     "ModifiedBy": "NULL",
     "ModifiedDate": "11:16.3",
     "IsDeleted": 0,
     "RowId": "NULL",
     "CityCode": "SUKA",
     "placeid": "NULL",
     "GoogleCityName": "Dantewada",
     "Latitude": 18.3909118,
     "Longitude": 81.6588003
    },
    {
     "StateId": 7,
     "CityName": "Surajpur",
     "Id": 649,
     "IsActive": 1,
     "CreatedBy": "NULL",
     "CreatedDate": "NULL",
     "ModifiedBy": "NULL",
     "ModifiedDate": "11:16.3",
     "IsDeleted": 0,
     "RowId": "NULL",
     "CityCode": "SURR",
     "placeid": "NULL",
     "GoogleCityName": "Surajpur",
     "Latitude": 23.2136011,
     "Longitude": 82.8679549
    },
    {
     "StateId": 9,
     "CityName": "Silvassa",
     "Id": 677,
     "IsActive": 1,
     "CreatedBy": "NULL",
     "CreatedDate": "NULL",
     "ModifiedBy": "NULL",
     "ModifiedDate": "11:16.4",
     "IsDeleted": 0,
     "RowId": "NULL",
     "CityCode": "XIL",
     "placeid": "NULL",
     "GoogleCityName": "Dadra and Nagar Haveli",
     "Latitude": 20.2753406,
     "Longitude": 73.0072986
    },
    {
     "StateId": 9,
     "CityName": "Daman",
     "Id": 686,
     "IsActive": 1,
     "CreatedBy": "NULL",
     "CreatedDate": "NULL",
     "ModifiedBy": "NULL",
     "ModifiedDate": "11:16.4",
     "IsDeleted": 0,
     "RowId": "NULL",
     "CityCode": "XDM",
     "placeid": "NULL",
     "GoogleCityName": "Daman",
     "Latitude": 20.3973736,
     "Longitude": 72.8327991
    },
    {
     "StateId": 9,
     "CityName": "Diu",
     "Id": 687,
     "IsActive": 1,
     "CreatedBy": "NULL",
     "CreatedDate": "NULL",
     "ModifiedBy": "NULL",
     "ModifiedDate": "11:16.4",
     "IsDeleted": 0,
     "RowId": "NULL",
     "CityCode": "DIU",
     "placeid": "NULL",
     "GoogleCityName": "Diu",
     "Latitude": 20.7144094,
     "Longitude": 70.9873719
    },
    {
     "StateId": 10,
     "CityName": "Central Delhi",
     "Id": 692,
     "IsActive": 1,
     "CreatedBy": "NULL",
     "CreatedDate": "NULL",
     "ModifiedBy": 1,
     "ModifiedDate": "32:26.8",
     "IsDeleted": 0,
     "RowId": "NULL",
     "CityCode": "DEL",
     "GoogleCityName": "Central Delhi",
     "Latitude": 28.6643427,
     "Longitude": 77.2166836
    },
    {
     "StateId": 10,
     "CityName": "New Delhi And NCR",
     "Id": 694,
     "IsActive": 1,
     "CreatedBy": "NULL",
     "CreatedDate": "NULL",
     "ModifiedBy": "NULL",
     "ModifiedDate": "11:16.4",
     "IsDeleted": 0,
     "RowId": "NULL",
     "CityCode": "DEL",
     "placeid": "NULL",
     "GoogleCityName": "NULL",
     "Latitude": 28.6139391,
     "Longitude": 77.2090212
    },
    {
     "StateId": 11,
     "CityName": "Canacona",
     "Id": 701,
     "IsActive": 1,
     "CreatedBy": "NULL",
     "CreatedDate": "NULL",
     "ModifiedBy": "NULL",
     "ModifiedDate": "11:16.5",
     "IsDeleted": 0,
     "RowId": "NULL",
     "CityCode": "CANA",
     "placeid": "NULL",
     "GoogleCityName": "South Goa",
     "Latitude": 14.9976384,
     "Longitude": 74.0411338999999
    },
    {
     "StateId": 11,
     "CityName": "Candolim",
     "Id": 702,
     "IsActive": 1,
     "CreatedBy": "NULL",
     "CreatedDate": "NULL",
     "ModifiedBy": "NULL",
     "ModifiedDate": "11:16.5",
     "IsDeleted": 0,
     "RowId": "NULL",
     "CityCode": "CANM",
     "placeid": "NULL",
     "GoogleCityName": "North Goa",
     "Latitude": 15.5127952,
     "Longitude": 73.7688876
    },
    {
     "StateId": 11,
     "CityName": "Goa",
     "Id": 705,
     "IsActive": 1,
     "CreatedBy": "NULL",
     "CreatedDate": "NULL",
     "ModifiedBy": "NULL",
     "ModifiedDate": "11:16.5",
     "IsDeleted": 0,
     "RowId": "NULL",
     "CityCode": "GOI",
     "placeid": "NULL",
     "GoogleCityName": "NULL",
     "Latitude": 15.501984,
     "Longitude": 73.9100067999999
    },
    {
     "StateId": 11,
     "CityName": "Madgaon",
     "Id": 707,
     "IsActive": 1,
     "CreatedBy": "NULL",
     "CreatedDate": "NULL",
     "ModifiedBy": "NULL",
     "ModifiedDate": "11:16.5",
     "IsDeleted": 0,
     "RowId": "NULL",
     "CityCode": "MADN",
     "placeid": "NULL",
     "GoogleCityName": "South Goa",
     "Latitude": 15.2832187,
     "Longitude": 73.9861909999999
    },
    {
     "StateId": 11,
     "CityName": "Panjim",
     "Id": 711,
     "IsActive": 1,
     "CreatedBy": "NULL",
     "CreatedDate": "NULL",
     "ModifiedBy": "NULL",
     "ModifiedDate": "11:16.5",
     "IsDeleted": 0,
     "RowId": "NULL",
     "CityCode": "GOAP",
     "placeid": "NULL",
     "GoogleCityName": "North Goa",
     "Latitude": 15.4909301,
     "Longitude": 73.8278496
    },
    {
     "StateId": 11,
     "CityName": "Ponda",
     "Id": 712,
     "IsActive": 1,
     "CreatedBy": "NULL",
     "CreatedDate": "NULL",
     "ModifiedBy": "NULL",
     "ModifiedDate": "11:16.5",
     "IsDeleted": 0,
     "RowId": "NULL",
     "CityCode": "PONA",
     "placeid": "NULL",
     "GoogleCityName": "North Goa",
     "Latitude": 15.4027005,
     "Longitude": 74.0077848999999
    },
    {
     "StateId": 12,
     "CityName": "Ahmedabad",
     "Id": 715,
     "IsActive": 1,
     "CreatedBy": "NULL",
     "CreatedDate": "NULL",
     "ModifiedBy": "NULL",
     "ModifiedDate": "11:16.5",
     "IsDeleted": 0,
     "RowId": "NULL",
     "CityCode": "AMD",
     "placeid": "NULL",
     "GoogleCityName": "Ahmedabad",
     "Latitude": 23.022505,
     "Longitude": 72.5713621
    },
    {
     "StateId": 12,
     "CityName": "Amreli",
     "Id": 718,
     "IsActive": 1,
     "CreatedBy": "NULL",
     "CreatedDate": "NULL",
     "ModifiedBy": "NULL",
     "ModifiedDate": "11:16.5",
     "IsDeleted": 0,
     "RowId": "NULL",
     "CityCode": "AMRI",
     "placeid": "NULL",
     "GoogleCityName": "Amreli",
     "Latitude": 21.6015242,
     "Longitude": 71.2203555
    },
    {
     "StateId": 12,
     "CityName": "Anand",
     "Id": 719,
     "IsActive": 1,
     "CreatedBy": "NULL",
     "CreatedDate": "NULL",
     "ModifiedBy": "NULL",
     "ModifiedDate": "11:16.5",
     "IsDeleted": 0,
     "RowId": "NULL",
     "CityCode": "XAN",
     "placeid": "NULL",
     "GoogleCityName": "Anand",
     "Latitude": 22.5645175,
     "Longitude": 72.928871
    },
    {
     "StateId": 12,
     "CityName": "Anjar",
     "Id": 720,
     "IsActive": 1,
     "CreatedBy": "NULL",
     "CreatedDate": "NULL",
     "ModifiedBy": "NULL",
     "ModifiedDate": "11:16.5",
     "IsDeleted": 0,
     "RowId": "NULL",
     "CityCode": "ANJR",
     "placeid": "NULL",
     "GoogleCityName": "Kutch",
     "Latitude": 23.1166716,
     "Longitude": 70.0281023
    },
    {
     "StateId": 12,
     "CityName": "Ankaleshwar",
     "Id": 721,
     "IsActive": 1,
     "CreatedBy": "NULL",
     "CreatedDate": "NULL",
     "ModifiedBy": "NULL",
     "ModifiedDate": "11:16.5",
     "IsDeleted": 0,
     "RowId": "NULL",
     "CityCode": "XZO",
     "placeid": "NULL",
     "GoogleCityName": "Bharuch",
     "Latitude": 21.6264236,
     "Longitude": 73.0151984
    },
    {
     "StateId": 12,
     "CityName": "Banaskantha",
     "Id": 724,
     "IsActive": 1,
     "CreatedBy": "NULL",
     "CreatedDate": "NULL",
     "ModifiedBy": "NULL",
     "ModifiedDate": "11:16.5",
     "IsDeleted": 0,
     "RowId": "NULL",
     "CityCode": "BANAS",
     "placeid": "NULL",
     "GoogleCityName": "Banaskantha",
     "Latitude": 24.345473900000002,
     "Longitude": 71.7622481
    },
    {
     "StateId": 12,
     "CityName": "Bardoli",
     "Id": 726,
     "IsActive": 1,
     "CreatedBy": "NULL",
     "CreatedDate": "NULL",
     "ModifiedBy": "NULL",
     "ModifiedDate": "11:16.5",
     "IsDeleted": 0,
     "RowId": "NULL",
     "CityCode": "BARIO",
     "placeid": "NULL",
     "GoogleCityName": "Surat",
     "Latitude": 21.1255374,
     "Longitude": 73.1122499
    },
    {
     "StateId": 12,
     "CityName": "Baroda",
     "Id": 728,
     "IsActive": 1,
     "CreatedBy": "NULL",
     "CreatedDate": "NULL",
     "ModifiedBy": "NULL",
     "ModifiedDate": "11:16.5",
     "IsDeleted": 0,
     "RowId": "NULL",
     "CityCode": "BDQ",
     "placeid": "NULL",
     "GoogleCityName": "Vadodara",
     "Latitude": 22.3071588,
     "Longitude": 73.1812187
    },
    {
     "StateId": 12,
     "CityName": "Bayad",
     "Id": 730,
     "IsActive": 1,
     "CreatedBy": "NULL",
     "CreatedDate": "NULL",
     "ModifiedBy": "NULL",
     "ModifiedDate": "11:16.5",
     "IsDeleted": 0,
     "RowId": "NULL",
     "CityCode": "BAYD",
     "placeid": "NULL",
     "GoogleCityName": "Sabarkatha",
     "Latitude": 23.2298313,
     "Longitude": 73.2205065
    },
    {
     "StateId": 12,
     "CityName": "Bharuch",
     "Id": 733,
     "IsActive": 1,
     "CreatedBy": "NULL",
     "CreatedDate": "NULL",
     "ModifiedBy": "NULL",
     "ModifiedDate": "11:16.5",
     "IsDeleted": 0,
     "RowId": "NULL",
     "CityCode": "BHA",
     "placeid": "NULL",
     "GoogleCityName": "Bharuch",
     "Latitude": 21.7051358,
     "Longitude": 72.9958748
    },
    {
     "StateId": 12,
     "CityName": "Bhavnagar",
     "Id": 734,
     "IsActive": 1,
     "CreatedBy": "NULL",
     "CreatedDate": "NULL",
     "ModifiedBy": "NULL",
     "ModifiedDate": "11:16.5",
     "IsDeleted": 0,
     "RowId": "NULL",
     "CityCode": "BHV",
     "placeid": "NULL",
     "GoogleCityName": "Bhavnagar",
     "Latitude": 21.7644725,
     "Longitude": 72.1519304
    },
    {
     "StateId": 12,
     "CityName": "Bhuj",
     "Id": 736,
     "IsActive": 1,
     "CreatedBy": "NULL",
     "CreatedDate": "NULL",
     "ModifiedBy": "NULL",
     "ModifiedDate": "11:16.5",
     "IsDeleted": 0,
     "RowId": "NULL",
     "CityCode": "BHU",
     "placeid": "NULL",
     "GoogleCityName": "Kutch",
     "Latitude": 23.2419997,
     "Longitude": 69.6669324
    },
    {
     "StateId": 12,
     "CityName": "Billimora",
     "Id": 737,
     "IsActive": 1,
     "CreatedBy": "NULL",
     "CreatedDate": "NULL",
     "ModifiedBy": "NULL",
     "ModifiedDate": "11:16.5",
     "IsDeleted": 0,
     "RowId": "NULL",
     "CityCode": "BILAI",
     "placeid": "NULL",
     "GoogleCityName": "Navsari",
     "Latitude": 20.7702311,
     "Longitude": 72.9823779
    },
    {
     "StateId": 12,
     "CityName": "Botad",
     "Id": 739,
     "IsActive": 1,
     "CreatedBy": "NULL",
     "CreatedDate": "NULL",
     "ModifiedBy": "NULL",
     "ModifiedDate": "11:16.5",
     "IsDeleted": 0,
     "RowId": "NULL",
     "CityCode": "BOTD",
     "placeid": "NULL",
     "GoogleCityName": "Bhavnagar",
     "Latitude": 22.1722509,
     "Longitude": 71.663622
    },
    {
     "StateId": 12,
     "CityName": "Chanasma",
     "Id": 740,
     "IsActive": 1,
     "CreatedBy": "NULL",
     "CreatedDate": "NULL",
     "ModifiedBy": "NULL",
     "ModifiedDate": "11:16.6",
     "IsDeleted": 0,
     "RowId": "NULL",
     "CityCode": "CHAAAG",
     "placeid": "NULL",
     "GoogleCityName": "Patan",
     "Latitude": 23.7192097,
     "Longitude": 72.1090303
    },
    {
     "StateId": 12,
     "CityName": "Dabhoi",
     "Id": 743,
     "IsActive": 1,
     "CreatedBy": "NULL",
     "CreatedDate": "NULL",
     "ModifiedBy": "NULL",
     "ModifiedDate": "11:16.6",
     "IsDeleted": 0,
     "RowId": "NULL",
     "CityCode": "DABIO",
     "placeid": "NULL",
     "GoogleCityName": "Vadodara",
     "Latitude": 22.1330822,
     "Longitude": 73.4137825999999
    },
    {
     "StateId": 12,
     "CityName": "Dahod",
     "Id": 744,
     "IsActive": 1,
     "CreatedBy": "NULL",
     "CreatedDate": "NULL",
     "ModifiedBy": "NULL",
     "ModifiedDate": "11:16.6",
     "IsDeleted": 0,
     "RowId": "NULL",
     "CityCode": "DAHDD",
     "placeid": "NULL",
     "GoogleCityName": "Dahod",
     "Latitude": 22.8344992,
     "Longitude": 74.2606184999999
    },
    {
     "StateId": 12,
     "CityName": "Deesa",
     "Id": 750,
     "IsActive": 1,
     "CreatedBy": "NULL",
     "CreatedDate": "NULL",
     "ModifiedBy": "NULL",
     "ModifiedDate": "11:16.6",
     "IsDeleted": 0,
     "RowId": "NULL",
     "CityCode": "DEEAA",
     "placeid": "NULL",
     "GoogleCityName": "Banaskantha",
     "Latitude": 24.2585055,
     "Longitude": 72.1906739
    },
    {
     "StateId": 12,
     "CityName": "Dhandhuka",
     "Id": 754,
     "IsActive": 1,
     "CreatedBy": "NULL",
     "CreatedDate": "NULL",
     "ModifiedBy": "NULL",
     "ModifiedDate": "11:16.6",
     "IsDeleted": 0,
     "RowId": "NULL",
     "CityCode": "DHAADG",
     "placeid": "NULL",
     "GoogleCityName": "Ahmedabad",
     "Latitude": 22.3818623,
     "Longitude": 71.9806723
    },
    {
     "StateId": 12,
     "CityName": "Dhanera",
     "Id": 755,
     "IsActive": 1,
     "CreatedBy": "NULL",
     "CreatedDate": "NULL",
     "ModifiedBy": 1,
     "ModifiedDate": "32:26.8",
     "IsDeleted": 0,
     "RowId": "NULL",
     "CityCode": "DHAAE",
     "GoogleCityName": "Banaskantha",
     "Latitude": 24.5063838,
     "Longitude": 72.0258406
    },
    {
     "StateId": 12,
     "CityName": "Dhrangadhra",
     "Id": 760,
     "IsActive": 1,
     "CreatedBy": "NULL",
     "CreatedDate": "NULL",
     "ModifiedBy": "NULL",
     "ModifiedDate": "11:16.6",
     "IsDeleted": 0,
     "RowId": "NULL",
     "CityCode": "DHRA",
     "placeid": "NULL",
     "GoogleCityName": "Surendranagar",
     "Latitude": 22.9832248,
     "Longitude": 71.4744609999999
    },
    {
     "StateId": 12,
     "CityName": "Dhrol",
     "Id": 761,
     "IsActive": 1,
     "CreatedBy": "NULL",
     "CreatedDate": "NULL",
     "ModifiedBy": "NULL",
     "ModifiedDate": "11:16.6",
     "IsDeleted": 0,
     "RowId": "NULL",
     "CityCode": "DHRL",
     "placeid": "NULL",
     "GoogleCityName": "Jamnagar",
     "Latitude": 22.5617178,
     "Longitude": 70.4223635
    },
    {
     "StateId": 12,
     "CityName": "Dwarka",
     "Id": 762,
     "IsActive": 1,
     "CreatedBy": "NULL",
     "CreatedDate": "NULL",
     "ModifiedBy": "NULL",
     "ModifiedDate": "11:16.6",
     "IsDeleted": 0,
     "RowId": "NULL",
     "CityCode": "XOP",
     "placeid": "NULL",
     "GoogleCityName": "Jamnagar",
     "Latitude": 22.2441975,
     "Longitude": 68.9684561999999
    },
    {
     "StateId": 12,
     "CityName": "Gandhinagar",
     "Id": 765,
     "IsActive": 1,
     "CreatedBy": "NULL",
     "CreatedDate": "NULL",
     "ModifiedBy": "NULL",
     "ModifiedDate": "11:16.6",
     "IsDeleted": 0,
     "RowId": "NULL",
     "CityCode": "XGR",
     "placeid": "NULL",
     "GoogleCityName": "Gandhinagar",
     "Latitude": 23.2156354,
     "Longitude": 72.6369414999999
    },
    {
     "StateId": 12,
     "CityName": "Godhra",
     "Id": 767,
     "IsActive": 1,
     "CreatedBy": "NULL",
     "CreatedDate": "NULL",
     "ModifiedBy": "NULL",
     "ModifiedDate": "11:16.6",
     "IsDeleted": 0,
     "RowId": "NULL",
     "CityCode": "GODAR",
     "placeid": "NULL",
     "GoogleCityName": "Panchmahal",
     "Latitude": 22.7788044,
     "Longitude": 73.6142795
    },
    {
     "StateId": 12,
     "CityName": "Gondal",
     "Id": 769,
     "IsActive": 1,
     "CreatedBy": "NULL",
     "CreatedDate": "NULL",
     "ModifiedBy": "NULL",
     "ModifiedDate": "11:16.6",
     "IsDeleted": 0,
     "RowId": "NULL",
     "CityCode": "GONL",
     "placeid": "NULL",
     "GoogleCityName": "Rajkot",
     "Latitude": 21.9611708,
     "Longitude": 70.7938777
    },
    {
     "StateId": 12,
     "CityName": "Halol",
     "Id": 770,
     "IsActive": 1,
     "CreatedBy": "NULL",
     "CreatedDate": "NULL",
     "ModifiedBy": "NULL",
     "ModifiedDate": "11:16.6",
     "IsDeleted": 0,
     "RowId": "NULL",
     "CityCode": "HALLL",
     "placeid": "NULL",
     "GoogleCityName": "Panchmahal",
     "Latitude": 22.5045713,
     "Longitude": 73.4713666
    },
    {
     "StateId": 12,
     "CityName": "Halvad",
     "Id": 771,
     "IsActive": 1,
     "CreatedBy": "NULL",
     "CreatedDate": "NULL",
     "ModifiedBy": 1,
     "ModifiedDate": "32:26.8",
     "IsDeleted": 0,
     "RowId": "NULL",
     "CityCode": "HALD",
     "GoogleCityName": "Morbi",
     "Latitude": 23.013705,
     "Longitude": 71.1823868
    },
    {
     "StateId": 12,
     "CityName": "Himmatnagar",
     "Id": 773,
     "IsActive": 1,
     "CreatedBy": "NULL",
     "CreatedDate": "NULL",
     "ModifiedBy": "NULL",
     "ModifiedDate": "11:16.6",
     "IsDeleted": 0,
     "RowId": "NULL",
     "CityCode": "HIM",
     "placeid": "NULL",
     "GoogleCityName": "Sabarkatha",
     "Latitude": 23.5968857,
     "Longitude": 72.9630378
    },
    {
     "StateId": 12,
     "CityName": "Jamnagar",
     "Id": 778,
     "IsActive": 1,
     "CreatedBy": "NULL",
     "CreatedDate": "NULL",
     "ModifiedBy": "NULL",
     "ModifiedDate": "11:16.7",
     "IsDeleted": 0,
     "RowId": "NULL",
     "CityCode": "JGA",
     "placeid": "NULL",
     "GoogleCityName": "Jamnagar",
     "Latitude": 22.4707019,
     "Longitude": 70.05773
    },
    {
     "StateId": 12,
     "CityName": "Junagadh",
     "Id": 784,
     "IsActive": 1,
     "CreatedBy": "NULL",
     "CreatedDate": "NULL",
     "ModifiedBy": "NULL",
     "ModifiedDate": "11:16.7",
     "IsDeleted": 0,
     "RowId": "NULL",
     "CityCode": "JUNH",
     "placeid": "NULL",
     "GoogleCityName": "Junagadh",
     "Latitude": 21.5222203,
     "Longitude": 70.4579436
    },
    {
     "StateId": 12,
     "CityName": "Junagarh",
     "Id": 785,
     "IsActive": 1,
     "CreatedBy": "NULL",
     "CreatedDate": "NULL",
     "ModifiedBy": 1,
     "ModifiedDate": "32:26.8",
     "IsDeleted": 0,
     "RowId": "NULL",
     "CityCode": "JNA",
     "GoogleCityName": "Junagadh",
     "Latitude": 21.5222203,
     "Longitude": 70.4579436
    },
    {
     "StateId": 12,
     "CityName": "Keshod",
     "Id": 789,
     "IsActive": 1,
     "CreatedBy": "NULL",
     "CreatedDate": "NULL",
     "ModifiedBy": "NULL",
     "ModifiedDate": "11:16.7",
     "IsDeleted": 0,
     "RowId": "NULL",
     "CityCode": "KESD",
     "placeid": "NULL",
     "GoogleCityName": "Junagadh",
     "Latitude": 21.2997164,
     "Longitude": 70.2492882
    },
    {
     "StateId": 12,
     "CityName": "Khambat",
     "Id": 790,
     "IsActive": 1,
     "CreatedBy": "NULL",
     "CreatedDate": "NULL",
     "ModifiedBy": "NULL",
     "ModifiedDate": "11:16.7",
     "IsDeleted": 0,
     "RowId": "NULL",
     "CityCode": "KHAT",
     "placeid": "NULL",
     "GoogleCityName": "Anand",
     "Latitude": 22.3180817,
     "Longitude": 72.6189845
    },
    {
     "StateId": 12,
     "CityName": "Khambhalia",
     "Id": 791,
     "IsActive": 1,
     "CreatedBy": "NULL",
     "CreatedDate": "NULL",
     "ModifiedBy": "NULL",
     "ModifiedDate": "11:16.7",
     "IsDeleted": 0,
     "RowId": "NULL",
     "CityCode": "KHAAB",
     "placeid": "NULL",
     "GoogleCityName": "Jamnagar",
     "Latitude": 22.2052603,
     "Longitude": 69.6587765
    },
    {
     "StateId": 12,
     "CityName": "Kodinar",
     "Id": 796,
     "IsActive": 1,
     "CreatedBy": "NULL",
     "CreatedDate": "NULL",
     "ModifiedBy": "NULL",
     "ModifiedDate": "11:16.7",
     "IsDeleted": 0,
     "RowId": "NULL",
     "CityCode": "KODRN",
     "placeid": "NULL",
     "GoogleCityName": "Junagadh",
     "Latitude": 20.8009246,
     "Longitude": 70.6960306
    },
    {
     "StateId": 12,
     "CityName": "Kutch",
     "Id": 799,
     "IsActive": 1,
     "CreatedBy": "NULL",
     "CreatedDate": "NULL",
     "ModifiedBy": "NULL",
     "ModifiedDate": "11:16.7",
     "IsDeleted": 0,
     "RowId": "NULL",
     "CityCode": "XTC",
     "placeid": "NULL",
     "GoogleCityName": "Kutch",
     "Latitude": 23.7337326,
     "Longitude": 69.8597406
    },
    {
     "StateId": 12,
     "CityName": "Mahuva",
     "Id": 809,
     "IsActive": 1,
     "CreatedBy": "NULL",
     "CreatedDate": "NULL",
     "ModifiedBy": "NULL",
     "ModifiedDate": "11:16.7",
     "IsDeleted": 0,
     "RowId": "NULL",
     "CityCode": "MAHAV",
     "placeid": "NULL",
     "GoogleCityName": "Bhavnagar",
     "Latitude": 21.0921598,
     "Longitude": 71.7704631
    },
    {
     "StateId": 12,
     "CityName": "Mandvi",
     "Id": 814,
     "IsActive": 1,
     "CreatedBy": "NULL",
     "CreatedDate": "NULL",
     "ModifiedBy": "NULL",
     "ModifiedDate": "11:16.8",
     "IsDeleted": 0,
     "RowId": "NULL",
     "CityCode": "MANIV",
     "placeid": "NULL",
     "GoogleCityName": "Kutch",
     "Latitude": 22.833334,
     "Longitude": 69.3554783
    },
    {
     "StateId": 12,
     "CityName": "Mehsana",
     "Id": 817,
     "IsActive": 1,
     "CreatedBy": "NULL",
     "CreatedDate": "NULL",
     "ModifiedBy": "NULL",
     "ModifiedDate": "11:16.8",
     "IsDeleted": 0,
     "RowId": "NULL",
     "CityCode": "MEH",
     "placeid": "NULL",
     "GoogleCityName": "Mehsana",
     "Latitude": 23.5879607,
     "Longitude": 72.3693251999999
    },
    {
     "StateId": 12,
     "CityName": "Modasa",
     "Id": 819,
     "IsActive": 1,
     "CreatedBy": "NULL",
     "CreatedDate": "NULL",
     "ModifiedBy": "NULL",
     "ModifiedDate": "11:16.8",
     "IsDeleted": 0,
     "RowId": "NULL",
     "CityCode": "MODA",
     "placeid": "NULL",
     "GoogleCityName": "Aravalli",
     "Latitude": 23.464311,
     "Longitude": 73.2987577999999
    },
    {
     "StateId": 12,
     "CityName": "Morbi",
     "Id": 820,
     "IsActive": 1,
     "CreatedBy": "NULL",
     "CreatedDate": "NULL",
     "ModifiedBy": "NULL",
     "ModifiedDate": "11:16.8",
     "IsDeleted": 0,
     "RowId": "NULL",
     "CityCode": "MORII",
     "placeid": "NULL",
     "GoogleCityName": "Morbi",
     "Latitude": 22.8251874,
     "Longitude": 70.8490808999999
    },
    {
     "StateId": 12,
     "CityName": "Mundra",
     "Id": 822,
     "IsActive": 1,
     "CreatedBy": "NULL",
     "CreatedDate": "NULL",
     "ModifiedBy": "NULL",
     "ModifiedDate": "11:16.8",
     "IsDeleted": 0,
     "RowId": "NULL",
     "CityCode": "MUN",
     "placeid": "NULL",
     "GoogleCityName": "Kutch",
     "Latitude": 22.8395202,
     "Longitude": 69.7213266
    },
    {
     "StateId": 12,
     "CityName": "Nadiad",
     "Id": 823,
     "IsActive": 1,
     "CreatedBy": "NULL",
     "CreatedDate": "NULL",
     "ModifiedBy": "NULL",
     "ModifiedDate": "11:16.8",
     "IsDeleted": 0,
     "RowId": "NULL",
     "CityCode": "NAD",
     "placeid": "NULL",
     "GoogleCityName": "Kheda",
     "Latitude": 22.6915853,
     "Longitude": 72.8633634999999
    },
    {
     "StateId": 12,
     "CityName": "Navsari",
     "Id": 828,
     "IsActive": 1,
     "CreatedBy": "NULL",
     "CreatedDate": "NULL",
     "ModifiedBy": "NULL",
     "ModifiedDate": "11:16.8",
     "IsDeleted": 0,
     "RowId": "NULL",
     "CityCode": "NAVIA",
     "placeid": "NULL",
     "GoogleCityName": "Navsari",
     "Latitude": 20.9467019,
     "Longitude": 72.9520347999999
    },
    {
     "StateId": 12,
     "CityName": "Palanpur",
     "Id": 833,
     "IsActive": 1,
     "CreatedBy": "NULL",
     "CreatedDate": "NULL",
     "ModifiedBy": "NULL",
     "ModifiedDate": "11:16.8",
     "IsDeleted": 0,
     "RowId": "NULL",
     "CityCode": "PAL",
     "placeid": "NULL",
     "GoogleCityName": "Banaskantha",
     "Latitude": 24.1724338,
     "Longitude": 72.434581
    },
    {
     "StateId": 12,
     "CityName": "Patan",
     "Id": 836,
     "IsActive": 1,
     "CreatedBy": "NULL",
     "CreatedDate": "NULL",
     "ModifiedBy": "NULL",
     "ModifiedDate": "11:16.8",
     "IsDeleted": 0,
     "RowId": "NULL",
     "CityCode": "PATNG",
     "placeid": "NULL",
     "GoogleCityName": "Patan",
     "Latitude": 23.8500156,
     "Longitude": 72.1210274
    },
    {
     "StateId": 12,
     "CityName": "Porbandar",
     "Id": 838,
     "IsActive": 1,
     "CreatedBy": "NULL",
     "CreatedDate": "NULL",
     "ModifiedBy": "NULL",
     "ModifiedDate": "11:16.8",
     "IsDeleted": 0,
     "RowId": "NULL",
     "CityCode": "POR",
     "placeid": "NULL",
     "GoogleCityName": "Porbandar",
     "Latitude": 21.6416979,
     "Longitude": 69.6293058999999
    },